$GPGGA,,,,,,0,,,,,,,,*66
$GPGGA,,,,,,0,,,,,,,,*66
$GPGGA,,,,,,0,,,,,,,,*66
$GPGGA,,,,,,0,,,,,,,,*66
$GPGGA,,,,,,0,,,,,,,,*66
$GPGGA,,,,,,0,,,,,,,,*66
$GPGGA,,,,,,0,,,,,,,,*66
$GPGGA,,,,,,0,,,,,,,,*66
$GPGGA,,,,,,0,,,,,,,,*66
$GPGGA,,,,,,0,,,,,,,,*66
$GPGGA,,,,,,0,,,,,,,,*66
$GPGGA,,,,,,0,,,,,,,,*66
$GPGGA,,,,,,0,,,,,,,,*66
$GPGGA,,,,,,0,,,,,,,,*66
$GPGGA,,,,,,0,,,,,,,,*66
$GPGGA,,,,,,0,,,,,,,,*66
$GPGGA,,,,,,0,,,,,,,,*66
$GPGGA,,,,,,0,,,,,,,,*66
$GPGGA,,,,,,0,,,,,,,,*66
$GPGGA,,,,,,0,,,,,,,,*66
$GPGGA,,,,,,0,,,,,,,,*66
$GPGGA,,,,,,0,,,,,,,,*66
$GPGGA,,,,,,0,,,,,,,,*66
$GPGGA,,,,,,0,,,,,,,,*66
$GPGGA,,,,,,0,,,,,,,,*66
$GPGGA,,,,,,0,,,,,,,,*66
$GPGGA,,,,,,0,,,,,,,,*66
$GPGGA,,,,,,0,,,,,,,,*66
$GPGGA,,,,,,0,,,,,,,,*66
$GPGGA,,,,,,0,,,,,,,,*66
$GPGGA,,,,,,0,,,,,,,,*66
$GPGGA,,,,,,0,,,,,,,,*66
$GPGGA,,,,,,0,,,,,,,,*66
$GPGGA,,,,,,0,,,,,,,,*66
$GPGGA,,,,,,0,,,,,,,,*66
$GPGGA,,,,,,0,,,,,,,,*66
$GPGGA,,,,,,0,,,,,,,,*66
$GPGGA,,,,,,0,,,,,,,,*66
$GPGGA,,,,,,0,,,,,,,,*66
$GPGGA,,,,,,0,,,,,,,,*66
$GPGGA,,,,,,0,,,,,,,,*66
$GPGGA,,,,,,0,,,,,,,,*66
$GPGGA,,,,,,0,,,,,,,,*66
$GPGGA,,,,,,0,,,,,,,,*66
$GPGGA,,,,,,0,,,,,,,,*66
$GPGGA,,,,,,0,,,,,,,,*66
$GPGGA,,,,,,0,,,,,,,,*66
$GPGGA,,,,,,0,,,,,,,,*66
$GPGGA,,,,,,0,,,,,,,,*66
$GPGGA,,,,,,0,,,,,,,,*66
$GPGGA,,,,,,0,,,,,,,,*66
$GPGGA,,,,,,0,,,,,,,,*66
$GPGGA,,,,,,0,,,,,,,,*66
$GPGGA,,,,,,0,,,,,,,,*66
$GPGGA,,,,,,0,,,,,,,,*66
$GPGGA,,,,,,0,,,,,,,,*66
$GPGGA,,,,,,0,,,,,,,,*66
$GPGGA,,,,,,0,,,,,,,,*66
$GPGGA,,,,,,0,,,,,,,,*66
$GPGGA,,,,,,0,,,,,,,,*66
$GPGGA,,,,,,0,,,,,,,,*66
$GPGGA,,,,,,0,,,,,,,,*66
$GPGGA,,,,,,0,,,,,,,,*66
$GPGGA,,,,,,0,,,,,,,,*66
$GPGGA,,,,,,0,,,,,,,,*66
$GPGGA,,,,,,0,,,,,,,,*66
$GPGGA,,,,,,0,,,,,,,,*66
$GPGGA,,,,,,0,,,,,,,,*66
$GPGGA,,,,,,0,,,,,,,,*66
$GPGGA,,,,,,0,,,,,,,,*66
$GPGGA,,,,,,0,,,,,,,,*66
$GPGGA,,,,,,0,,,,,,,,*66
$GPGGA,,,,,,0,,,,,,,,*66
$GPGGA,,,,,,0,,,,,,,,*66
$GPGGA,,,,,,0,,,,,,,,*66
$GPGGA,,,,,,0,,,,,,,,*66
$GPGGA,,,,,,0,,,,,,,,*66
$GPGGA,,,,,,0,,,,,,,,*66
$GPGGA,,,,,,0,,,,,,,,*66
$GPGGA,,,,,,0,,,,,,,,*66
$GPGGA,,,,,,0,,,,,,,,*66
$GPGGA,,,,,,0,,,,,,,,*66
$GPGGA,,,,,,0,,,,,,,,*66
$GPGGA,,,,,,0,,,,,,,,*66
$GPGGA,,,,,,0,,,,,,,,*66
$GPGGA,,,,,,0,,,,,,,,*66
$GPGGA,,,,,,0,,,,,,,,*66
$GPGGA,,,,,,0,,,,,,,,*66
$GPGGA,,,,,,0,,,,,,,,*66
$GPGGA,,,,,,0,,,,,,,,*66
$GPGGA,,,,,,0,,,,,,,,*66
$GPGGA,,,,,,0,,,,,,,,*66
$GPGGA,,,,,,0,,,,,,,,*66
$GPGGA,,,,,,0,,,,,,,,*66
$GPGGA,,,,,,0,,,,,,,,*66
$GPGGA,,,,,,0,,,,,,,,*66
$GPGGA,,,,,,0,,,,,,,,*66
$GPGGA,,,,,,0,,,,,,,,*66
$GPGGA,,,,,,0,,,,,,,,*66
$GPGGA,,,,,,0,,,,,,,,*66
$GPGGA,,,,,,0,,,,,,,,*66
$GPGGA,,,,,,0,,,,,,,,*66
$GPGGA,,,,,,0,,,,,,,,*66
$GPGGA,,,,,,0,,,,,,,,*66
$GPGGA,,,,,,0,,,,,,,,*66
$GPGGA,,,,,,0,,,,,,,,*66
$GPGGA,,,,,,0,,,,,,,,*66
$GPGGA,,,,,,0,,,,,,,,*66
$GPGGA,,,,,,0,,,,,,,,*66
$GPGGA,,,,,,0,,,,,,,,*66
$GPGGA,,,,,,0,,,,,,,,*66
$GPGGA,,,,,,0,,,,,,,,*66
$GPGGA,,,,,,0,,,,,,,,*66
$GPGGA,,,,,,0,,,,,,,,*66
$GPGGA,,,,,,0,,,,,,,,*66
$GPGGA,,,,,,0,,,,,,,,*66
$GPGGA,,,,,,0,,,,,,,,*66
$GPGGA,,,,,,0,,,,,,,,*66
$GPGGA,,,,,,0,,,,,,,,*66
$GPGGA,,,,,,0,,,,,,,,*66
$GPGGA,,,,,,0,,,,,,,,*66
$GPGGA,,,,,,0,,,,,,,,*66
$GPGGA,,,,,,0,,,,,,,,*66
$GPGGA,,,,,,0,,,,,,,,*66
$GPGGA,,,,,,0,,,,,,,,*66
$GPGGA,,,,,,0,,,,,,,,*66
$GPGGA,,,,,,0,,,,,,,,*66
$GPGGA,,,,,,0,,,,,,,,*66
$GPGGA,,,,,,0,,,,,,,,*66
$GPGGA,,,,,,0,,,,,,,,*66
$GPGGA,,,,,,0,,,,,,,,*66
$GPGGA,,,,,,0,,,,,,,,*66
$GPGGA,,,,,,0,,,,,,,,*66
$GPGGA,,,,,,0,,,,,,,,*66
$GPGGA,,,,,,0,,,,,,,,*66
$GPGGA,,,,,,0,,,,,,,,*66
$GPGGA,,,,,,0,,,,,,,,*66
$GPGGA,,,,,,0,,,,,,,,*66
$GPGGA,,,,,,0,,,,,,,,*66
$GPGGA,,,,,,0,,,,,,,,*66
$GPGGA,032555.00,3109.2820193,N,12038.9146731,E,1,08,1.9,-2.8787,M,8.063,M,,*45
$GPGGA,032557.00,3109.2818087,N,12038.9143543,E,1,08,1.9,-2.7620,M,8.063,M,,*49
$GPGGA,032558.00,3109.2820287,N,12038.9144552,E,1,08,1.9,-3.6905,M,8.063,M,,*40
$GPGGA,032559.00,3109.2817103,N,12038.9145168,E,1,08,1.9,-3.0947,M,8.063,M,,*46
$GPGGA,032600.00,3109.2814517,N,12038.9148644,E,1,08,1.9,0.2142,M,8.063,M,,*6E
$GPGGA,032601.00,3109.2826646,N,12038.9156212,E,1,10,1.6,-1.6079,M,8.063,M,,*46
$GPGGA,032602.00,3109.2827018,N,12038.9157236,E,1,10,1.6,0.7440,M,8.063,M,,*6D
$GPGGA,032603.00,3109.2827749,N,12038.9152390,E,1,10,1.6,0.4156,M,8.063,M,,*66
$GPGGA,032604.00,3109.2836196,N,12038.9149290,E,1,10,1.6,-0.6738,M,8.063,M,,*4F
$GPGGA,032605.00,3109.2848999,N,12038.9146228,E,1,10,1.6,-0.2557,M,8.063,M,,*43
$GPGGA,032606.00,3109.2866424,N,12038.9148115,E,1,09,1.7,4.9003,M,8.063,M,,*6B
$GPGGA,032607.00,3109.2903346,N,12038.9146125,E,1,10,1.6,-0.5728,M,8.063,M,,*44
$GPGGA,032608.00,3109.2941478,N,12038.9142788,E,1,10,1.6,3.1887,M,8.063,M,99,0000*62
$GPGGA,032609.00,3109.2983947,N,12038.9138475,E,1,10,1.6,3.1633,M,8.063,M,99,0000*61
$GPGGA,032610.00,3109.3032161,N,12038.9133553,E,1,10,1.6,3.1719,M,8.063,M,99,0000*60
$GPGGA,032611.00,3109.3085027,N,12038.9128213,E,1,10,1.6,3.2275,M,8.063,M,99,0000*6B
$GPGGA,032612.00,3109.3142166,N,12038.9122454,E,1,10,1.6,3.2406,M,8.063,M,99,0000*6B
$GPGGA,032613.00,3109.3203249,N,12038.9116041,E,1,10,1.6,3.2312,M,8.063,M,99,0000*67
$GPGGA,032614.00,3109.3267166,N,12038.9108922,E,1,10,1.6,3.2603,M,8.062,M,99,0000*6B
$GPGGA,032615.00,3109.3333064,N,12038.9100824,E,1,10,1.6,3.2185,M,8.062,M,99,0000*6F
$GPGGA,032616.00,3109.3401193,N,12038.9091689,E,1,10,1.6,3.1046,M,8.062,M,99,0000*6E
$GPGGA,032617.00,3109.3471531,N,12038.9081723,E,1,10,1.6,3.0405,M,8.062,M,99,0000*66
$GPGGA,032618.00,3109.3543390,N,12038.9070982,E,1,10,1.6,3.0444,M,8.062,M,99,0000*6A
$GPGGA,032619.00,3109.3616043,N,12038.9059442,E,1,10,1.6,3.0480,M,8.062,M,99,0000*67
$GPGGA,032620.00,3109.3688944,N,12038.9047566,E,1,10,1.6,3.0278,M,8.062,M,99,0000*6D
$GPGGA,032621.00,3109.3761526,N,12038.9035534,E,1,10,1.6,2.9595,M,8.061,M,99,0000*6F
$GPGGA,032622.00,3109.3834011,N,12038.9022875,E,1,10,1.6,2.8439,M,8.061,M,99,0000*6A
$GPGGA,032623.00,3109.3907309,N,12038.9010198,E,1,10,1.6,2.9100,M,8.061,M,99,0000*65
$GPGGA,032624.00,3109.3981640,N,12038.8997356,E,1,09,1.7,3.0074,M,8.061,M,99,0000*60
$GPGGA,032625.00,3109.4057776,N,12038.8985004,E,1,09,1.7,2.7766,M,8.061,M,99,0000*65
$GPGGA,032626.00,3109.4135070,N,12038.8973977,E,1,07,1.9,3.0574,M,8.061,M,99,0000*61
$GPGGA,032627.00,3109.4216046,N,12038.8961821,E,1,07,1.9,2.6249,M,8.061,M,99,0000*68
$GPGGA,032628.00,3109.4298129,N,12038.8949479,E,1,07,1.9,2.5989,M,8.060,M,99,0000*67
$GPGGA,032629.00,3109.4380190,N,12038.8936299,E,1,08,1.7,2.5891,M,8.060,M,99,0000*65
$GPGGA,032630.00,3109.4461319,N,12038.8922849,E,1,07,2.2,2.4557,M,8.060,M,99,0000*6B
$GPGGA,032631.00,3109.4540747,N,12038.8909123,E,1,08,2.2,2.3975,M,8.060,M,99,0000*6F
$GPGGA,032632.00,3109.4618351,N,12038.8895683,E,1,08,2.2,2.3650,M,8.060,M,99,0000*60
$GPGGA,032633.00,3109.4694151,N,12038.8882702,E,1,08,2.2,2.3129,M,8.060,M,99,0000*60
$GPGGA,032634.00,3109.4768149,N,12038.8870158,E,1,07,3.1,2.2994,M,8.060,M,99,0000*6A
$GPGGA,032635.00,3109.4840548,N,12038.8857606,E,1,07,3.1,2.2746,M,8.059,M,99,0000*69
$GPGGA,032636.00,3109.4910806,N,12038.8845303,E,1,07,3.1,2.3914,M,8.059,M,99,0000*62
$GPGGA,032637.00,3109.4978101,N,12038.8832440,E,1,07,3.1,2.4144,M,8.059,M,99,0000*69
$GPGGA,,,,,,0,,,,,,,,*66
$GPGGA,,,,,,0,,,,,,,,*66
$GPGGA,032640.00,3109.5152754,N,12038.8791150,E,1,06,3.1,2.8075,M,8.059,M,99,0000*62
$GPGGA,032641.00,3109.5196384,N,12038.8778927,E,1,06,3.1,8.7433,M,8.059,M,99,0000*6E
$GPGGA,032642.00,3109.5233985,N,12038.8765092,E,1,06,3.1,12.3402,M,8.058,M,99,0000*5D
$GPGGA,032643.00,3109.5273657,N,12038.8767455,E,1,06,3.1,13.9844,M,8.058,M,99,0000*50
$GPGGA,032644.00,3109.5311078,N,12038.8810825,E,1,07,2.1,10.8609,M,8.059,M,99,0000*59
$GPGGA,032645.00,3109.5362171,N,12038.8847579,E,1,08,1.6,0.7251,M,8.059,M,99,0000*6E
$GPGGA,032646.00,3109.5409614,N,12038.8878747,E,1,08,1.6,-6.7323,M,8.059,M,99,0000*4F
$GPGGA,032647.00,3109.5452418,N,12038.8918851,E,1,08,1.6,-11.8686,M,8.059,M,99,0000*72
$GPGGA,032648.00,3109.5486777,N,12038.8970525,E,1,08,2.0,-11.5040,M,8.060,M,99,0000*70
$GPGGA,032649.00,3109.5515986,N,12038.9034577,E,1,08,2.0,-8.7378,M,8.060,M,99,0000*47
$GPGGA,032650.00,3109.5547365,N,12038.9106168,E,1,08,2.0,-6.7421,M,8.060,M,99,0000*40
$GPGGA,032651.00,3109.5583398,N,12038.9181335,E,1,10,1.5,-6.0230,M,8.061,M,99,0000*41
$GPGGA,032652.00,3109.5623781,N,12038.9259834,E,1,10,2.0,-6.0794,M,8.061,M,99,0000*46
$GPGGA,032653.00,3109.5667381,N,12038.9342498,E,1,10,2.0,-6.1467,M,8.062,M,99,0000*4F
$GPGGA,032654.00,3109.5713233,N,12038.9429289,E,1,10,2.0,-6.1013,M,8.062,M,99,0000*49
$GPGGA,032655.00,3109.5760547,N,12038.9519899,E,1,10,2.0,-6.1423,M,8.063,M,99,0000*47
$GPGGA,032656.00,3109.5808584,N,12038.9613794,E,1,11,1.5,-6.1385,M,8.063,M,99,0000*4D
$GPGGA,032657.00,3109.5857246,N,12038.9710190,E,1,10,1.9,-6.1666,M,8.064,M,99,0000*4D
$GPGGA,032658.00,3109.5906793,N,12038.9808896,E,1,10,1.9,-6.1745,M,8.064,M,99,0000*43
$GPGGA,032659.00,3109.5957273,N,12038.9909122,E,1,10,1.9,-6.1452,M,8.065,M,99,0000*4F
$GPGGA,032700.00,3109.6008554,N,12039.0009365,E,1,10,1.9,-6.0217,M,8.065,M,99,0000*46
$GPGGA,032701.00,3109.6061696,N,12039.0108322,E,1,10,1.9,-5.9764,M,8.066,M,99,0000*4E
$GPGGA,032702.00,3109.6116873,N,12039.0205779,E,1,10,1.9,-5.8382,M,8.067,M,99,0000*41
$GPGGA,032703.00,3109.6172855,N,12039.0303024,E,1,10,1.9,-5.5535,M,8.067,M,99,0000*49
$GPGGA,032704.00,3109.6227799,N,12039.0401116,E,1,10,1.9,-5.0936,M,8.068,M,99,0000*42
$GPGGA,032705.00,3109.6281030,N,12039.0500417,E,1,10,1.9,-4.5793,M,8.068,M,99,0000*4A
$GPGGA,032706.00,3109.6333101,N,12039.0600689,E,1,10,1.9,-4.0985,M,8.069,M,99,0000*49
$GPGGA,032707.00,3109.6385171,N,12039.0702813,E,1,10,1.9,-3.5631,M,8.069,M,99,0000*4E
$GPGGA,032708.00,3109.6437959,N,12039.0806646,E,1,10,1.9,-2.9387,M,8.070,M,99,0000*45
$GPGGA,032709.00,3109.6490180,N,12039.0909696,E,1,10,1.9,-2.2915,M,8.071,M,99,0000*4D
$GPGGA,032710.00,3109.6541430,N,12039.1011595,E,1,10,1.9,-1.7613,M,8.071,M,99,0000*48
$GPGGA,032711.00,3109.6592245,N,12039.1113434,E,1,10,1.9,-1.2102,M,8.072,M,99,0000*4B
$GPGGA,032712.00,3109.6642880,N,12039.1215214,E,1,10,1.9,-0.6873,M,8.072,M,99,0000*4E
$GPGGA,032713.00,3109.6694200,N,12039.1317978,E,1,07,2.1,-0.1959,M,8.073,M,99,0000*46
$GPGGA,032714.00,3109.6745187,N,12039.1420372,E,1,08,2.1,0.3073,M,8.074,M,99,0000*65
$GPGGA,032715.00,3109.6796661,N,12039.1522975,E,1,08,2.1,0.8187,M,8.074,M,99,0000*6A
$GPGGA,032716.00,3109.6847982,N,12039.1626252,E,1,06,6.9,1.6380,M,8.075,M,99,0000*68
$GPGGA,,,,,,0,,,,,,,,*66
$GPGGA,,,,,,0,,,,,,,,*66
$GPGGA,,,,,,0,,,,,,,,*66
$GPGGA,,,,,,0,,,,,,,,*66
$GPGGA,,,,,,0,,,,,,,,*66
$GPGGA,,,,,,0,,,,,,,,*66
$GPGGA,,,,,,0,,,,,,,,*66
$GPGGA,,,,,,0,,,,,,,,*66
$GPGGA,,,,,,0,,,,,,,,*66
$GPGGA,,,,,,0,,,,,,,,*66
$GPGGA,,,,,,0,,,,,,,,*66
$GPGGA,,,,,,0,,,,,,,,*66
$GPGGA,,,,,,0,,,,,,,,*66
$GPGGA,,,,,,0,,,,,,,,*66
$GPGGA,032731.00,3109.7564593,N,12039.3217053,E,1,07,3.7,10.0246,M,8.084,M,,*52
$GPGGA,032732.00,3109.7618529,N,12039.3316930,E,1,07,3.7,8.6770,M,8.084,M,99,0000*6B
$GPGGA,032733.00,3109.7658116,N,12039.3424857,E,1,08,2.1,8.1942,M,8.085,M,99,0000*61
$GPGGA,032734.00,3109.7695689,N,12039.3531733,E,1,08,2.1,7.6521,M,8.086,M,99,0000*6C
$GPGGA,032735.00,3109.7731297,N,12039.3637590,E,1,09,2.0,7.1674,M,8.086,M,99,0000*63
$GPGGA,032736.00,3109.7764722,N,12039.3741169,E,1,09,2.0,6.7338,M,8.087,M,99,0000*62
$GPGGA,032737.00,3109.7796194,N,12039.3841672,E,1,09,2.0,6.2545,M,8.088,M,99,0000*61
$GPGGA,032738.00,3109.7825569,N,12039.3939478,E,1,09,2.0,5.5859,M,8.088,M,99,0000*6D
$GPGGA,032739.00,3109.7853352,N,12039.4033749,E,1,09,2.0,5.0274,M,8.089,M,99,0000*67
$GPGGA,032740.00,3109.7879160,N,12039.4124926,E,1,09,2.0,4.5278,M,8.089,M,99,0000*6A
$GPGGA,032741.00,3109.7902971,N,12039.4213029,E,1,09,2.0,4.0974,M,8.090,M,99,0000*65
$GPGGA,032742.00,3109.7924470,N,12039.4296735,E,1,09,2.0,3.6414,M,8.090,M,99,0000*63
$GPGGA,032743.00,3109.7943241,N,12039.4374763,E,1,09,2.0,3.2671,M,8.091,M,99,0000*6D
$GPGGA,032744.00,3109.7959535,N,12039.4445848,E,1,09,2.0,2.9890,M,8.091,M,99,0000*6D
$GPGGA,032745.00,3109.7973571,N,12039.4509310,E,1,09,2.0,2.6854,M,8.092,M,99,0000*6F
$GPGGA,032746.00,3109.7985236,N,12039.4565607,E,1,08,2.0,2.6717,M,8.092,M,99,0000*61
$GPGGA,032747.00,3109.7995185,N,12039.4612931,E,1,08,2.0,2.3816,M,8.092,M,99,0000*68
$GPGGA,032748.00,3109.8003115,N,12039.4652144,E,1,09,2.0,2.3223,M,8.092,M,99,0000*64
$GPGGA,032749.00,3109.8008992,N,12039.4681954,E,1,09,1.9,2.2533,M,8.093,M,99,0000*62
$GPGGA,032750.00,3109.8012735,N,12039.4701378,E,1,09,1.9,2.2447,M,8.093,M,99,0000*6D
$GPGGA,032751.00,3109.8014393,N,12039.4709534,E,1,08,1.9,2.1916,M,8.093,M,99,0000*6F
$GPGGA,032752.00,3109.8014788,N,12039.4711169,E,1,08,3.4,2.1884,M,8.093,M,99,0000*62
$GPGGA,032753.00,3109.8014918,N,12039.4711085,E,1,08,3.4,2.1643,M,8.093,M,99,0000*62
$GPGGA,032754.00,3109.8015000,N,12039.4711101,E,1,08,3.4,2.1565,M,8.093,M,99,0000*6E
$GPGGA,032755.00,3109.8014952,N,12039.4711119,E,1,08,3.4,2.1669,M,8.093,M,99,0000*66
$GPGGA,032756.00,3109.8014945,N,12039.4711119,E,1,08,3.4,2.1808,M,8.093,M,99,0000*6A
$GPGGA,032757.00,3109.8014810,N,12039.4711190,E,1,08,3.4,2.2120,M,8.093,M,99,0000*6B
$GPGGA,032758.00,3109.8014830,N,12039.4711176,E,1,08,3.4,2.1818,M,8.093,M,99,0000*6F
$GPGGA,032759.00,3109.8014811,N,12039.4711176,E,1,08,3.4,2.2127,M,8.093,M,99,0000*6B
$GPGGA,032800.00,3109.8014843,N,12039.4711161,E,1,08,3.4,2.1978,M,8.093,M,99,0000*68
$GPGGA,032801.00,3109.8014855,N,12039.4711194,E,1,09,1.9,2.2241,M,8.093,M,99,0000*68
$GPGGA,032802.00,3109.8014750,N,12039.4711281,E,1,09,1.9,2.2484,M,8.093,M,99,0000*69
$GPGGA,032803.00,3109.8014602,N,12039.4711481,E,1,09,1.9,2.3334,M,8.093,M,99,0000*65
$GPGGA,032804.00,3109.8014571,N,12039.4711525,E,1,09,1.9,2.3332,M,8.093,M,99,0000*6C
$GPGGA,032805.00,3109.8014632,N,12039.4711464,E,1,09,1.9,2.3044,M,8.093,M,99,0000*6F
$GPGGA,032806.00,3109.8014599,N,12039.4711541,E,1,09,1.9,2.3298,M,8.093,M,99,0000*6B
$GPGGA,032807.00,3109.8014598,N,12039.4711456,E,1,09,1.9,2.3322,M,8.093,M,99,0000*6C
$GPGGA,032808.00,3109.8014598,N,12039.4711561,E,1,09,1.9,2.3530,M,8.093,M,99,0000*63
$GPGGA,032809.00,3109.8014598,N,12039.4711599,E,1,09,1.9,2.3444,M,8.093,M,99,0000*67
$GPGGA,032810.00,3109.8014537,N,12039.4711549,E,1,09,1.9,2.3483,M,8.093,M,99,0000*6C
$GPGGA,032811.00,3109.8014519,N,12039.4711538,E,1,08,1.8,2.3899,M,8.093,M,99,0000*60
$GPGGA,032812.00,3109.8014489,N,12039.4711491,E,1,09,1.4,2.3876,M,8.093,M,99,0000*65
$GPGGA,032813.00,3109.8014413,N,12039.4711584,E,1,09,1.4,2.4126,M,8.093,M,99,0000*69
$GPGGA,032814.00,3109.8014296,N,12039.4711636,E,1,08,1.9,2.4300,M,8.093,M,99,0000*65
$GPGGA,032815.00,3109.8014313,N,12039.4711573,E,1,10,1.4,2.4103,M,8.093,M,99,0000*6F
$GPGGA,032816.00,3109.8014351,N,12039.4711547,E,1,10,1.4,2.4005,M,8.093,M,99,0000*6A
$GPGGA,032817.00,3109.8014368,N,12039.4711539,E,1,10,1.4,2.3678,M,8.093,M,99,0000*63
$GPGGA,032818.00,3109.8014392,N,12039.4711517,E,1,10,1.4,2.3538,M,8.093,M,99,0000*62
$GPGGA,032819.00,3109.8014447,N,12039.4711432,E,1,10,1.4,2.3140,M,8.093,M,99,0000*61
$GPGGA,032820.00,3109.8014448,N,12039.4711404,E,1,10,1.4,2.3195,M,8.093,M,99,0000*69
$GPGGA,032821.00,3109.8014452,N,12039.4711387,E,1,11,1.4,2.3161,M,8.093,M,99,0000*65
$GPGGA,032822.00,3109.8014454,N,12039.4711369,E,1,11,1.4,2.3012,M,8.093,M,99,0000*65
$GPGGA,032823.00,3109.8014514,N,12039.4711343,E,1,11,1.4,2.3010,M,8.093,M,99,0000*6B
$GPGGA,032824.00,3109.8014348,N,12039.4711460,E,1,11,1.4,2.3260,M,8.093,M,99,0000*60
$GPGGA,032825.00,3109.8014430,N,12039.4711350,E,1,11,1.4,2.2901,M,8.093,M,99,0000*60
$GPGGA,032826.00,3109.8014486,N,12039.4711350,E,1,11,1.4,2.2745,M,8.093,M,99,0000*60
$GPGGA,032827.00,3109.8014480,N,12039.4711302,E,1,11,1.4,2.2493,M,8.093,M,99,0000*68
$GPGGA,032828.00,3109.8014499,N,12039.4711333,E,1,11,1.4,2.2578,M,8.093,M,99,0000*69
$GPGGA,032829.00,3109.8014472,N,12039.4711331,E,1,11,1.4,2.2695,M,8.093,M,99,0000*6F
$GPGGA,032830.00,3109.8014468,N,12039.4711374,E,1,11,1.4,2.2693,M,8.093,M,99,0000*6B
$GPGGA,032831.00,3109.8014454,N,12039.4711346,E,1,13,1.2,2.2712,M,8.093,M,99,0000*68
$GPGGA,032832.00,3109.8014428,N,12039.4711387,E,1,13,1.2,2.2910,M,8.093,M,99,0000*61
$GPGGA,032833.00,3109.8014431,N,12039.4711394,E,1,13,1.2,2.2916,M,8.093,M,99,0000*6C
$GPGGA,032834.00,3109.8014429,N,12039.4711402,E,1,13,1.2,2.2979,M,8.093,M,99,0000*63
$GPGGA,032835.00,3109.8014402,N,12039.4711409,E,1,13,1.2,2.3005,M,8.093,M,99,0000*63
$GPGGA,032836.00,3109.8014408,N,12039.4711424,E,1,12,1.4,2.3070,M,8.093,M,99,0000*60
$GPGGA,032837.00,3109.8014396,N,12039.4711444,E,1,13,1.2,2.3080,M,8.093,M,99,0000*6F
$GPGGA,032838.00,3109.8014412,N,12039.4711417,E,1,13,1.2,2.3029,M,8.093,M,99,0000*6E
$GPGGA,032839.00,3109.8014418,N,12039.4711454,E,1,13,1.2,2.3179,M,8.093,M,99,0000*66
$GPGGA,032840.00,3109.8014453,N,12039.4711438,E,1,13,1.2,2.3184,M,8.093,M,99,0000*6F
$GPGGA,032841.00,3109.8014441,N,12039.4711460,E,1,12,1.4,2.3281,M,8.093,M,99,0000*61
$GPGGA,032842.00,3109.8014426,N,12039.4711516,E,1,13,1.2,2.3342,M,8.093,M,99,0000*6A
$GPGGA,032843.00,3109.8014438,N,12039.4711529,E,1,13,1.2,2.3436,M,8.093,M,99,0000*6C
$GPGGA,032844.00,3109.8014440,N,12039.4711514,E,1,13,1.2,2.3389,M,8.093,M,99,0000*69
$GPGGA,032845.00,3109.8014419,N,12039.4711547,E,1,13,1.2,2.3456,M,8.093,M,99,0000*67
$GPGGA,032846.00,3109.8014418,N,12039.4711569,E,1,13,1.2,2.3540,M,8.093,M,99,0000*6F
$GPGGA,032847.00,3109.8014424,N,12039.4711603,E,1,13,1.2,2.3652,M,8.093,M,99,0000*6E
$GPGGA,032848.00,3109.8014445,N,12039.4711574,E,1,13,1.2,2.3682,M,8.093,M,99,0000*68
$GPGGA,032849.00,3109.8014581,N,12039.4712361,E,1,13,1.2,2.3725,M,8.093,M,99,0000*6D
$GPGGA,032850.00,3109.8015449,N,12039.4716737,E,1,13,1.2,2.3505,M,8.093,M,99,0000*62
$GPGGA,032851.00,3109.8017035,N,12039.4725381,E,1,13,1.2,2.3715,M,8.093,M,99,0000*64
$GPGGA,032852.00,3109.8019530,N,12039.4738667,E,1,12,1.2,2.3920,M,8.093,M,99,0000*61
$GPGGA,032853.00,3109.8022820,N,12039.4756928,E,1,12,1.2,2.4347,M,8.093,M,99,0000*64
$GPGGA,032854.00,3109.8027000,N,12039.4779638,E,1,12,1.2,2.4703,M,8.093,M,99,0000*6B
$GPGGA,032855.00,3109.8032547,N,12039.4808371,E,1,12,1.2,2.4653,M,8.093,M,99,0000*6D
$GPGGA,032856.00,3109.8038980,N,12039.4843641,E,1,12,1.2,2.4473,M,8.094,M,99,0000*6D
$GPGGA,032857.00,3109.8046731,N,12039.4885858,E,1,13,1.2,2.4803,M,8.094,M,99,0000*67
$GPGGA,032858.00,3109.8055329,N,12039.4934639,E,1,13,1.2,2.4725,M,8.094,M,99,0000*6E
$GPGGA,032859.00,3109.8064653,N,12039.4989348,E,1,13,1.2,2.4936,M,8.094,M,99,0000*6C
$GPGGA,032900.00,3109.8074568,N,12039.5048722,E,1,13,1.2,2.5245,M,8.095,M,99,0000*69
$GPGGA,032901.00,3109.8085042,N,12039.5112645,E,1,13,1.2,2.4770,M,8.095,M,99,0000*67
$GPGGA,032902.00,3109.8095684,N,12039.5181523,E,1,13,1.2,2.4238,M,8.096,M,99,0000*6A
$GPGGA,032903.00,3109.8106460,N,12039.5255164,E,1,12,1.3,2.4056,M,8.096,M,99,0000*6F
$GPGGA,032904.00,3109.8117190,N,12039.5333288,E,1,13,1.2,2.4549,M,8.097,M,99,0000*68
$GPGGA,032905.00,3109.8128230,N,12039.5415748,E,1,13,1.2,2.4778,M,8.097,M,99,0000*66
$GPGGA,032906.00,3109.8139124,N,12039.5502025,E,1,12,1.2,2.4716,M,8.098,M,99,0000*6E
$GPGGA,032907.00,3109.8148741,N,12039.5589521,E,1,11,1.4,2.5777,M,8.098,M,99,0000*6D
$GPGGA,032908.00,3109.8156171,N,12039.5674113,E,1,11,1.4,2.5118,M,8.099,M,99,0000*62
$GPGGA,032909.00,3109.8161158,N,12039.5753112,E,1,11,1.4,2.5060,M,8.099,M,99,0000*67
$GPGGA,032910.00,3109.8164157,N,12039.5824859,E,1,10,1.7,2.5280,M,8.100,M,99,0000*63
$GPGGA,032911.00,3109.8165996,N,12039.5890764,E,1,10,1.7,2.5282,M,8.100,M,99,0000*6A
$GPGGA,032912.00,3109.8166823,N,12039.5953728,E,1,10,1.7,2.5533,M,8.100,M,99,0000*6E
$GPGGA,032913.00,3109.8168516,N,12039.6017326,E,1,10,1.7,2.5189,M,8.101,M,99,0000*6E
$GPGGA,032914.00,3109.8170436,N,12039.6084635,E,1,10,1.7,2.5276,M,8.101,M,99,0000*6D
$GPGGA,032915.00,3109.8171891,N,12039.6156109,E,1,10,1.7,2.5540,M,8.102,M,99,0000*6B
$GPGGA,032916.00,3109.8172683,N,12039.6231332,E,1,10,1.7,2.5467,M,8.102,M,99,0000*6A
$GPGGA,032917.00,3109.8173054,N,12039.6309624,E,1,10,1.7,2.5529,M,8.103,M,99,0000*64
$GPGGA,032918.00,3109.8172603,N,12039.6388942,E,1,10,1.7,2.5142,M,8.103,M,99,0000*61
$GPGGA,032919.00,3109.8171510,N,12039.6466494,E,1,10,1.7,2.5272,M,8.103,M,99,0000*63
$GPGGA,032920.00,3109.8170718,N,12039.6539504,E,1,10,1.7,2.5228,M,8.104,M,99,0000*69
$GPGGA,032921.00,3109.8170176,N,12039.6607748,E,1,10,1.7,2.4800,M,8.104,M,99,0000*63
$GPGGA,032922.00,3109.8169934,N,12039.6671643,E,1,10,1.7,2.4799,M,8.105,M,99,0000*63
$GPGGA,032923.00,3109.8169491,N,12039.6729728,E,1,10,1.7,2.4704,M,8.105,M,99,0000*64
$GPGGA,032924.00,3109.8169104,N,12039.6782342,E,1,10,1.7,2.4882,M,8.105,M,99,0000*62
$GPGGA,032925.00,3109.8168440,N,12039.6833285,E,1,10,1.7,2.4931,M,8.106,M,99,0000*62
$GPGGA,032926.00,3109.8167356,N,12039.6886710,E,1,10,1.7,2.4492,M,8.106,M,99,0000*6D
$GPGGA,032927.00,3109.8165354,N,12039.6946642,E,1,10,1.7,2.3734,M,8.106,M,99,0000*6F
$GPGGA,032928.00,3109.8162358,N,12039.7014025,E,1,11,1.3,2.3407,M,8.107,M,99,0000*64
$GPGGA,032929.00,3109.8159040,N,12039.7089025,E,1,11,1.3,2.2928,M,8.107,M,99,0000*62
$GPGGA,032930.00,3109.8156403,N,12039.7171147,E,1,10,1.4,2.3133,M,8.108,M,99,0000*6F
$GPGGA,032931.00,3109.8155048,N,12039.7259410,E,1,09,1.4,2.1371,M,8.108,M,99,0000*66
$GPGGA,,,,,,0,,,,,,,,*66
$GPGGA,,,,,,0,,,,,,,,*66
$GPGGA,,,,,,0,,,,,,,,*66
$GPGGA,,,,,,0,,,,,,,,*66
$GPGGA,,,,,,0,,,,,,,,*66
$GPGGA,,,,,,0,,,,,,,,*66
$GPGGA,,,,,,0,,,,,,,,*66
$GPGGA,,,,,,0,,,,,,,,*66
$GPGGA,032940.00,3109.8181132,N,12039.8250813,E,1,07,1.7,-1.3894,M,8.115,M,99,0000*41
$GPGGA,032941.00,3109.8177915,N,12039.8353632,E,1,07,1.7,-1.5793,M,8.115,M,99,0000*45
$GPGGA,032942.00,3109.8175070,N,12039.8468365,E,1,07,1.7,-1.6835,M,8.116,M,99,0000*45
$GPGGA,032943.00,3109.8178539,N,12039.8595619,E,1,09,1.5,1.6394,M,8.117,M,99,0000*6C
$GPGGA,032944.00,3109.8175379,N,12039.8719702,E,1,09,1.5,1.8473,M,8.117,M,99,0000*69
$GPGGA,032945.00,3109.8171320,N,12039.8841310,E,1,09,1.5,0.8553,M,8.118,M,99,0000*68
$GPGGA,032946.00,3109.8173834,N,12039.8960265,E,1,09,1.5,0.4540,M,8.119,M,99,0000*69
$GPGGA,032947.00,3109.8178902,N,12039.9079934,E,1,10,1.4,-0.2812,M,8.120,M,99,0000*4A
$GPGGA,032948.00,3109.8179744,N,12039.9210022,E,1,10,1.4,-0.3717,M,8.120,M,99,0000*40
$GPGGA,032949.00,3109.8179204,N,12039.9344204,E,1,10,1.4,-0.2540,M,8.121,M,99,0000*46
$GPGGA,032950.00,3109.8178721,N,12039.9480034,E,1,10,1.4,-0.1148,M,8.122,M,99,0000*4F
$GPGGA,032951.00,3109.8178237,N,12039.9616346,E,1,10,1.4,-0.0414,M,8.123,M,99,0000*4B
$GPGGA,032952.00,3109.8177260,N,12039.9752590,E,1,11,1.3,-0.0706,M,8.124,M,99,0000*48
$GPGGA,032953.00,3109.8176413,N,12039.9888504,E,1,11,1.3,-0.0772,M,8.125,M,99,0000*4D
$GPGGA,032954.00,3109.8175841,N,12040.0023938,E,1,11,1.3,-0.0937,M,8.126,M,99,0000*43
$GPGGA,032955.00,3109.8175529,N,12040.0157930,E,1,11,1.3,-0.0668,M,8.126,M,99,0000*4E
$GPGGA,032956.00,3109.8175638,N,12040.0290158,E,1,11,1.3,-0.0311,M,8.127,M,99,0000*4A
$GPGGA,032957.00,3109.8176015,N,12040.0420197,E,1,10,1.4,-0.0824,M,8.128,M,99,0000*4B
$GPGGA,032958.00,3109.8176209,N,12040.0549173,E,1,10,1.4,-0.1301,M,8.129,M,99,0000*43
$GPGGA,032959.00,3109.8176311,N,12040.0679779,E,1,10,1.4,-0.1555,M,8.130,M,99,0000*49
$GPGGA,033000.00,3109.8176557,N,12040.0812400,E,1,11,1.3,-0.2045,M,8.130,M,99,0000*46
$GPGGA,033001.00,3109.8177093,N,12040.0948159,E,1,11,1.3,-0.1813,M,8.131,M,99,0000*45
$GPGGA,033002.00,3109.8177869,N,12040.1086278,E,1,11,1.3,-0.2108,M,8.132,M,99,0000*42
$GPGGA,033003.00,3109.8178759,N,12040.1225330,E,1,11,1.3,-0.2985,M,8.133,M,99,0000*4A
$GPGGA,033004.00,3109.8179220,N,12040.1365066,E,1,11,1.3,-0.2967,M,8.134,M,99,0000*49
$GPGGA,033005.00,3109.8178992,N,12040.1505218,E,1,11,1.3,-0.2794,M,8.135,M,99,0000*43
$GPGGA,033006.00,3109.8178292,N,12040.1645298,E,1,11,1.3,-0.3321,M,8.136,M,99,0000*4C
$GPGGA,033007.00,3109.8177471,N,12040.1785117,E,1,11,1.3,-0.3279,M,8.136,M,99,0000*4C
$GPGGA,033008.00,3109.8176570,N,12040.1925216,E,1,11,1.3,-0.2978,M,8.137,M,99,0000*4E
$GPGGA,033009.00,3109.8176137,N,12040.2065654,E,1,11,1.3,-0.3587,M,8.138,M,99,0000*46
$GPGGA,033010.00,3109.8176201,N,12040.2206497,E,1,11,1.3,-0.3392,M,8.139,M,99,0000*41
$GPGGA,033011.00,3109.8176235,N,12040.2347621,E,1,11,1.3,-0.3157,M,8.140,M,99,0000*49
$GPGGA,033012.00,3109.8176005,N,12040.2489010,E,1,10,1.4,-0.3419,M,8.141,M,99,0000*42
$GPGGA,033013.00,3109.8175426,N,12040.2630589,E,1,10,1.4,-0.2791,M,8.142,M,99,0000*41
$GPGGA,033014.00,3109.8174442,N,12040.2772263,E,1,10,1.4,-0.3192,M,8.143,M,99,0000*44
$GPGGA,033015.00,3109.8173123,N,12040.2913926,E,1,10,1.4,-0.2593,M,8.143,M,99,0000*47
$GPGGA,033016.00,3109.8171401,N,12040.3055236,E,1,10,1.4,-0.1588,M,8.144,M,99,0000*4D
$GPGGA,033017.00,3109.8169013,N,12040.3196134,E,1,10,1.4,0.0128,M,8.145,M,99,0000*6E
$GPGGA,033018.00,3109.8166092,N,12040.3334504,E,1,10,1.4,0.1593,M,8.146,M,99,0000*6C
$GPGGA,033019.00,3109.8162596,N,12040.3468440,E,1,10,1.4,0.3666,M,8.147,M,99,0000*6D
$GPGGA,033020.00,3109.8158414,N,12040.3598492,E,1,10,1.4,0.6753,M,8.148,M,99,0000*69
$GPGGA,033021.00,3109.8153800,N,12040.3727457,E,1,08,1.5,0.5690,M,8.148,M,99,0000*60
$GPGGA,033022.00,3109.8144701,N,12040.3870811,E,1,07,1.6,-1.2269,M,8.149,M,,*4C
$GPGGA,033023.00,3109.8140334,N,12040.3976666,E,1,07,1.5,-2.6994,M,8.150,M,99,0000*47
$GPGGA,033024.00,3109.8129245,N,12040.4121139,E,1,08,1.5,1.4859,M,8.151,M,,*6A
$GPGGA,033025.00,3109.8126907,N,12040.4234570,E,1,07,1.5,1.2572,M,8.152,M,99,0000*69
$GPGGA,033026.00,3109.8134291,N,12040.4361736,E,1,07,1.4,-0.8355,M,8.152,M,99,0000*48
$GPGGA,033027.00,3109.8136930,N,12040.4477988,E,1,09,1.4,-0.7597,M,8.153,M,99,0000*48
$GPGGA,033028.00,3109.8151297,N,12040.4588950,E,1,09,1.4,-1.6526,M,8.154,M,99,0000*49
$GPGGA,033029.00,3109.8148848,N,12040.4700361,E,1,09,1.4,-5.0458,M,8.155,M,99,0000*49
$GPGGA,033030.00,3109.8149435,N,12040.4816960,E,1,09,1.4,-4.7687,M,8.155,M,99,0000*43
$GPGGA,033031.00,3109.8151677,N,12040.4927746,E,1,09,1.4,-2.4772,M,8.156,M,99,0000*4B
$GPGGA,033032.00,3109.8147607,N,12040.5038690,E,1,10,1.4,-2.3544,M,8.157,M,99,0000*4D
$GPGGA,033033.00,3109.8143510,N,12040.5152143,E,1,09,1.4,-2.0880,M,8.157,M,99,0000*47
$GPGGA,033034.00,3109.8141316,N,12040.5266891,E,1,09,1.4,-1.9920,M,8.158,M,99,0000*4E
$GPGGA,033035.00,3109.8140606,N,12040.5384920,E,1,09,1.4,-2.1309,M,8.159,M,99,0000*47
$GPGGA,033036.00,3109.8140810,N,12040.5507068,E,1,10,1.4,-2.1907,M,8.160,M,99,0000*43
$GPGGA,033037.00,3109.8141173,N,12040.5632808,E,1,10,1.4,-2.1973,M,8.160,M,99,0000*47
$GPGGA,033038.00,3109.8141494,N,12040.5761287,E,1,09,1.4,-2.2378,M,8.161,M,99,0000*45
$GPGGA,033039.00,3109.8141638,N,12040.5890332,E,1,10,1.4,-2.2610,M,8.162,M,99,0000*4E
$GPGGA,033040.00,3109.8141915,N,12040.6018016,E,1,10,1.4,-2.3143,M,8.163,M,99,0000*4F
$GPGGA,033041.00,3109.8142186,N,12040.6144059,E,1,09,1.4,-2.3747,M,8.163,M,99,0000*46
$GPGGA,033042.00,3109.8141944,N,12040.6268562,E,1,09,1.4,-2.3550,M,8.164,M,99,0000*43
$GPGGA,033043.00,3109.8141494,N,12040.6391298,E,1,09,1.4,-2.3025,M,8.165,M,99,0000*41
$GPGGA,033044.00,3109.8141126,N,12040.6512196,E,1,10,1.4,-2.3096,M,8.166,M,99,0000*49
$GPGGA,033045.00,3109.8141588,N,12040.6629321,E,1,10,1.4,-2.1586,M,8.166,M,99,0000*4B
$GPGGA,033046.00,3109.8143720,N,12040.6740906,E,1,09,1.4,-2.2432,M,8.167,M,99,0000*4F
$GPGGA,033047.00,3109.8147058,N,12040.6850889,E,1,07,2.1,-2.1608,M,8.168,M,99,0000*45
$GPGGA,,,,,,0,,,,,,,,*66
$GPGGA,,,,,,0,,,,,,,,*66
$GPGGA,,,,,,0,,,,,,,,*66
$GPGGA,,,,,,0,,,,,,,,*66
$GPGGA,,,,,,0,,,,,,,,*66
$GPGGA,,,,,,0,,,,,,,,*66
$GPGGA,,,,,,0,,,,,,,,*66
$GPGGA,,,,,,0,,,,,,,,*66
$GPGGA,,,,,,0,,,,,,,,*66
$GPGGA,,,,,,0,,,,,,,,*66
$GPGGA,033058.00,3109.8218833,N,12040.8101848,E,1,06,3.8,-17.7567,M,8.176,M,99,0000*77
$GPGGA,033059.00,3109.8221540,N,12040.8217013,E,1,06,3.9,-17.8202,M,8.176,M,99,0000*7D
$GPGGA,033100.00,3109.8224458,N,12040.8330427,E,1,06,3.9,-17.7982,M,8.177,M,99,0000*77
$GPGGA,033101.00,3109.8197994,N,12040.8476683,E,1,09,1.8,-1.8877,M,8.178,M,99,0000*49
$GPGGA,033102.00,3109.8201649,N,12040.8590185,E,1,09,1.8,-1.8997,M,8.179,M,99,0000*4F
$GPGGA,033103.00,3109.8205241,N,12040.8704708,E,1,09,1.8,-1.8953,M,8.179,M,99,0000*42
$GPGGA,033104.00,3109.8208809,N,12040.8819823,E,1,09,1.8,-1.8528,M,8.180,M,99,0000*4D
$GPGGA,033105.00,3109.8212426,N,12040.8935312,E,1,09,1.8,-1.8839,M,8.181,M,99,0000*4C
$GPGGA,033106.00,3109.8216281,N,12040.9051195,E,1,09,1.8,-2.0010,M,8.181,M,99,0000*4F
$GPGGA,033107.00,3109.8220248,N,12040.9168084,E,1,09,1.8,-2.1462,M,8.182,M,99,0000*47
$GPGGA,033108.00,3109.8224335,N,12040.9286335,E,1,09,1.8,-2.2588,M,8.183,M,99,0000*4A
$GPGGA,033109.00,3109.8228559,N,12040.9406059,E,1,09,1.8,-2.3879,M,8.184,M,99,0000*49
$GPGGA,033110.00,3109.8233233,N,12040.9526974,E,1,09,1.8,-2.4945,M,8.184,M,99,0000*4C
$GPGGA,033111.00,3109.8238361,N,12040.9648312,E,1,09,1.8,-2.6211,M,8.185,M,99,0000*48
$GPGGA,033112.00,3109.8243455,N,12040.9768949,E,1,09,1.8,-2.7165,M,8.186,M,99,0000*42
$GPGGA,033113.00,3109.8248689,N,12040.9888040,E,1,09,1.8,-2.8391,M,8.187,M,99,0000*4D
$GPGGA,033114.00,3109.8254247,N,12041.0003028,E,1,10,1.7,-2.8900,M,8.187,M,99,0000*49
$GPGGA,033115.00,3109.8259793,N,12041.0111980,E,1,10,1.7,-2.8614,M,8.188,M,99,0000*45
$GPGGA,033116.00,3109.8264983,N,12041.0214130,E,1,10,1.7,-2.7603,M,8.189,M,99,0000*4A
$GPGGA,033117.00,3109.8269504,N,12041.0309137,E,1,09,1.7,-2.6445,M,8.189,M,99,0000*46
$GPGGA,033118.00,3109.8272520,N,12041.0396722,E,1,10,1.7,-2.5183,M,8.190,M,99,0000*4D
$GPGGA,033119.00,3109.8274150,N,12041.0475925,E,1,10,1.7,-2.3975,M,8.190,M,99,0000*4D
$GPGGA,033120.00,3109.8274445,N,12041.0545598,E,1,10,1.7,-2.2444,M,8.191,M,99,0000*41
$GPGGA,033121.00,3109.8273516,N,12041.0604391,E,1,10,1.7,-2.1229,M,8.191,M,99,0000*47
$GPGGA,033122.00,3109.8271801,N,12041.0651041,E,1,10,1.7,-2.0734,M,8.191,M,99,0000*4B
$GPGGA,033123.00,3109.8269857,N,12041.0684792,E,1,10,1.7,-2.0399,M,8.191,M,99,0000*42
$GPGGA,033124.00,3109.8268386,N,12041.0706386,E,1,10,1.7,-2.0209,M,8.192,M,99,0000*42
$GPGGA,033125.00,3109.8267448,N,12041.0718763,E,1,09,1.7,-2.0301,M,8.192,M,99,0000*48
$GPGGA,033126.00,3109.8266943,N,12041.0725504,E,1,09,1.7,-2.0395,M,8.192,M,99,0000*4C
$GPGGA,033127.00,3109.8266710,N,12041.0728864,E,1,08,1.9,-2.0365,M,8.192,M,99,0000*43
$GPGGA,033128.00,3109.8266660,N,12041.0730072,E,1,09,1.7,-2.0580,M,8.192,M,99,0000*4E
$GPGGA,033129.00,3109.8266492,N,12041.0731036,E,1,09,1.7,-2.0438,M,8.192,M,99,0000*43
$GPGGA,033130.00,3109.8266485,N,12041.0732037,E,1,09,1.7,-2.0615,M,8.192,M,99,0000*42
$GPGGA,033131.00,3109.8266385,N,12041.0733140,E,1,09,1.7,-2.0606,M,8.192,M,99,0000*46
$GPGGA,033132.00,3109.8266340,N,12041.0733793,E,1,09,1.7,-2.0910,M,8.192,M,99,0000*4C
$GPGGA,033133.00,3109.8266301,N,12041.0734339,E,1,09,1.7,-2.0899,M,8.192,M,99,0000*4B
$GPGGA,033134.00,3109.8266271,N,12041.0734576,E,1,09,1.7,-2.1102,M,8.192,M,99,0000*4D
$GPGGA,033135.00,3109.8266274,N,12041.0734627,E,1,09,1.7,-2.0943,M,8.192,M,99,0000*42
$GPGGA,033136.00,3109.8266259,N,12041.0734610,E,1,09,1.7,-2.1012,M,8.192,M,99,0000*46
$GPGGA,033137.00,3109.8266241,N,12041.0734603,E,1,09,1.7,-2.0947,M,8.192,M,99,0000*44
$GPGGA,033138.00,3109.8266282,N,12041.0734536,E,1,09,1.7,-2.1101,M,8.192,M,99,0000*4A
$GPGGA,033139.00,3109.8266275,N,12041.0734598,E,1,10,1.4,-2.0991,M,8.192,M,99,0000*4C
$GPGGA,033140.00,3109.8266316,N,12041.0734520,E,1,10,1.4,-2.1137,M,8.192,M,99,0000*40
$GPGGA,033141.00,3109.8266355,N,12041.0734441,E,1,10,1.4,-2.1503,M,8.192,M,99,0000*43
$GPGGA,033142.00,3109.8266348,N,12041.0734484,E,1,10,1.4,-2.1323,M,8.192,M,99,0000*41
$GPGGA,033143.00,3109.8266353,N,12041.0734442,E,1,11,1.3,-2.1358,M,8.192,M,99,0000*4A
$GPGGA,033144.00,3109.8266363,N,12041.0734416,E,1,11,1.3,-2.1434,M,8.192,M,99,0000*42
$GPGGA,033145.00,3109.8266385,N,12041.0734419,E,1,11,1.3,-2.1474,M,8.192,M,99,0000*40
$GPGGA,033146.00,3109.8266384,N,12041.0734402,E,1,11,1.3,-2.1515,M,8.192,M,99,0000*4E
$GPGGA,033147.00,3109.8266368,N,12041.0734443,E,1,11,1.3,-2.1411,M,8.192,M,99,0000*4D
$GPGGA,033148.00,3109.8266364,N,12041.0734469,E,1,11,1.3,-2.1360,M,8.192,M,99,0000*47
$GPGGA,033149.00,3109.8266346,N,12041.0734462,E,1,11,1.3,-2.1302,M,8.192,M,99,0000*49
$GPGGA,033150.00,3109.8266374,N,12041.0734426,E,1,11,1.3,-2.1332,M,8.192,M,99,0000*43
$GPGGA,033151.00,3109.8266349,N,12041.0734423,E,1,11,1.3,-2.1363,M,8.192,M,99,0000*4D
$GPGGA,033152.00,3109.8266347,N,12041.0734407,E,1,11,1.3,-2.1242,M,8.192,M,99,0000*44
$GPGGA,033153.00,3109.8266361,N,12041.0734412,E,1,11,1.3,-2.1235,M,8.192,M,99,0000*45

OK!
Command accepted! Port: COM2.
$GPGGA,033154.00,3109.8266360,N,12041.0734423,E,1,11,1.3,-2.1162,M,8.192,M,99,0000*40

OK!
Command accepted! Port: COM2.
$GPGGA,033155.00,3109.8266340,N,12041.0734376,E,1,11,1.3,-2.1354,M,8.192,M,99,0000*43
$GPGGA,033156.00,3109.8266368,N,12041.0734350,E,1,12,1.3,-2.1276,M,8.192,M,99,0000*4C
$GPGGA,033157.00,3109.8266367,N,12041.0734357,E,1,12,1.3,-2.1311,M,8.192,M,99,0000*45
$GPGGA,033158.00,3109.8266361,N,12041.0734289,E,1,12,1.3,-2.1406,M,8.192,M,99,0000*4F
$GPGGA,033159.00,3109.8266392,N,12041.0734289,E,1,12,1.3,-2.1439,M,8.192,M,99,0000*4E
$GPGGA,033200.00,3109.8266390,N,12041.0734277,E,1,12,1.3,-2.1436,M,8.192,M,99,0000*4D
$GPGGA,033201.00,3109.8266393,N,12041.0734250,E,1,14,1.1,-2.1472,M,8.192,M,99,0000*4E
$GPGGA,033202.00,3109.8266336,N,12041.0734310,E,1,14,1.1,-2.1389,M,8.192,M,99,0000*44
$GPGGA,033203.00,3109.8266350,N,12041.0734282,E,1,14,1.1,-2.1428,M,8.192,M,99,0000*43
$GPGGA,033204.00,3109.8266391,N,12041.0734275,E,1,14,1.1,-2.1405,M,8.192,M,99,0000*4E
$GPGGA,033205.00,3109.8266376,N,12041.0734253,E,1,14,1.1,-2.1429,M,8.192,M,99,0000*4C
$GPGGA,033206.00,3109.8266340,N,12041.0734303,E,1,14,1.1,-2.1355,M,8.192,M,99,0000*42
$GPGGA,033207.00,3109.8266367,N,12041.0734277,E,1,13,1.2,-2.1389,M,8.192,M,99,0000*41
$GPGGA,033208.00,3109.8266356,N,12041.0734297,E,1,13,1.2,-2.1342,M,8.192,M,99,0000*45
$GPGGA,033209.00,3109.8266373,N,12041.0734304,E,1,13,1.2,-2.1299,M,8.192,M,99,0000*4F
$GPGGA,033210.00,3109.8266363,N,12041.0734301,E,1,13,1.2,-2.1277,M,8.192,M,99,0000*43
$GPGGA,033211.00,3109.8266378,N,12041.0734325,E,1,13,1.1,-2.1244,M,8.192,M,99,0000*4D
$GPGGA,033212.00,3109.8266400,N,12041.0734307,E,1,13,1.1,-2.1235,M,8.192,M,99,0000*40
$GPGGA,033213.00,3109.8266383,N,12041.0734337,E,1,13,1.1,-2.1060,M,8.192,M,99,0000*4C
$GPGGA,033214.00,3109.8266405,N,12041.0734242,E,1,13,1.1,-2.0963,M,8.192,M,99,0000*4A
$GPGGA,033215.00,3109.8266455,N,12041.0734248,E,1,14,1.1,-2.1054,M,8.192,M,99,0000*4F
$GPGGA,033216.00,3109.8266442,N,12041.0734257,E,1,14,1.1,-2.0959,M,8.192,M,99,0000*41
$GPGGA,033217.00,3109.8266434,N,12041.0734276,E,1,14,1.1,-2.0995,M,8.192,M,99,0000*42
$GPGGA,033218.00,3109.8266466,N,12041.0734320,E,1,15,1.0,-2.0922,M,8.192,M,99,0000*44
$GPGGA,033219.00,3109.8266452,N,12041.0734310,E,1,15,1.0,-2.0845,M,8.192,M,99,0000*41
$GPGGA,033220.00,3109.8266430,N,12041.0734348,E,1,15,1.0,-2.0857,M,8.192,M,99,0000*41
$GPGGA,033221.00,3109.8266448,N,12041.0734342,E,1,15,1.0,-2.0879,M,8.192,M,99,0000*49
$GPGGA,033222.00,3109.8266337,N,12041.0734401,E,1,15,1.0,-2.0804,M,8.192,M,99,0000*4F
$GPGGA,033223.00,3109.8266404,N,12041.0734395,E,1,14,1.1,-2.0896,M,8.192,M,99,0000*48
$GPGGA,033224.00,3109.8266374,N,12041.0734413,E,1,14,1.1,-2.0869,M,8.192,M,99,0000*46
$GPGGA,033225.00,3109.8266374,N,12041.0734405,E,1,14,1.1,-2.0771,M,8.192,M,99,0000*46
$GPGGA,033226.00,3109.8266376,N,12041.0734402,E,1,14,1.1,-2.0752,M,8.192,M,99,0000*41
$GPGGA,033227.00,3109.8266376,N,12041.0734437,E,1,14,1.1,-2.0805,M,8.192,M,99,0000*4B
$GPGGA,033228.00,3109.8266358,N,12041.0734461,E,1,14,1.1,-2.0826,M,8.192,M,99,0000*4A
$GPGGA,033229.00,3109.8266362,N,12041.0734492,E,1,14,1.1,-2.0865,M,8.192,M,99,0000*49
$GPGGA,033230.00,3109.8266374,N,12041.0734490,E,1,14,1.1,-2.0873,M,8.192,M,99,0000*43
$GPGGA,033231.00,3109.8266408,N,12041.0734494,E,1,14,1.1,-2.0950,M,8.192,M,99,0000*4A
$GPGGA,033232.00,3109.8266320,N,12041.0734936,E,1,14,1.1,-2.0625,M,8.192,M,99,0000*4C
$GPGGA,033233.00,3109.8266124,N,12041.0737720,E,1,13,1.2,-2.0713,M,8.192,M,99,0000*41
$GPGGA,033234.00,3109.8265466,N,12041.0746227,E,1,13,1.2,-2.0553,M,8.192,M,99,0000*44
$GPGGA,033235.00,3109.8264396,N,12041.0762020,E,1,14,1.2,-2.0411,M,8.192,M,99,0000*4F
$GPGGA,033236.00,3109.8262925,N,12041.0785515,E,1,13,1.2,-2.0025,M,8.192,M,99,0000*46
$GPGGA,033237.00,3109.8262846,N,12041.0815051,E,1,13,1.4,-1.9557,M,8.192,M,99,0000*4C
$GPGGA,033238.00,3109.8267249,N,12041.0846426,E,1,13,1.4,-1.9569,M,8.192,M,99,0000*4C
$GPGGA,033239.00,3109.8277716,N,12041.0876306,E,1,13,1.4,-1.8986,M,8.193,M,99,0000*48
$GPGGA,033240.00,3109.8294048,N,12041.0902604,E,1,12,1.6,-1.9258,M,8.193,M,99,0000*48
$GPGGA,033241.00,3109.8316013,N,12041.0925396,E,1,10,2.8,-1.8969,M,8.193,M,99,0000*40
$GPGGA,033242.00,3109.8344834,N,12041.0943822,E,1,10,2.8,-1.9960,M,8.193,M,99,0000*45
$GPGGA,033243.00,3109.8379489,N,12041.0957062,E,1,10,1.6,-2.0356,M,8.193,M,99,0000*41
$GPGGA,033244.00,3109.8419356,N,12041.0965653,E,1,09,2.5,-1.9799,M,8.193,M,99,0000*42
$GPGGA,033245.00,3109.8465195,N,12041.0969099,E,1,10,2.1,-2.0117,M,8.193,M,99,0000*4F
$GPGGA,033246.00,3109.8517124,N,12041.0968560,E,1,09,2.1,-2.0293,M,8.193,M,99,0000*47
$GPGGA,033247.00,3109.8575136,N,12041.0966199,E,1,08,1.9,-2.0555,M,8.193,M,99,0000*4A
$GPGGA,033248.00,3109.8639378,N,12041.0963038,E,1,09,1.9,-2.1055,M,8.193,M,99,0000*4C
$GPGGA,033249.00,3109.8709604,N,12041.0959049,E,1,09,1.9,-2.0793,M,8.193,M,99,0000*42
$GPGGA,033250.00,3109.8785725,N,12041.0953788,E,1,09,1.9,-2.1757,M,8.193,M,99,0000*45
$GPGGA,033251.00,3109.8867208,N,12041.0947461,E,1,11,1.5,-2.1839,M,8.193,M,99,0000*4E
$GPGGA,033252.00,3109.8953589,N,12041.0940094,E,1,12,1.5,-2.1670,M,8.192,M,99,0000*4D
$GPGGA,033253.00,3109.9043925,N,12041.0932633,E,1,12,1.5,-2.0016,M,8.192,M,99,0000*46
$GPGGA,033254.00,3109.9137941,N,12041.0926336,E,1,11,1.6,-1.7503,M,8.192,M,99,0000*41
$GPGGA,033255.00,3109.9235335,N,12041.0922098,E,1,11,1.6,-1.3089,M,8.192,M,99,0000*48
$GPGGA,033256.00,3109.9334899,N,12041.0918514,E,1,11,1.6,-0.7880,M,8.192,M,99,0000*4A
$GPGGA,033257.00,3109.9435967,N,12041.0915373,E,1,10,1.9,-0.2368,M,8.192,M,99,0000*41
$GPGGA,033258.00,3109.9538570,N,12041.0912438,E,1,11,1.5,0.3808,M,8.192,M,99,0000*6B
$GPGGA,033259.00,3109.9641055,N,12041.0910240,E,1,10,1.6,1.1058,M,8.192,M,99,0000*62
$GPGGA,033300.00,3109.9744377,N,12041.0908292,E,1,10,1.6,1.7283,M,8.192,M,99,0000*6C
$GPGGA,033301.00,3109.9848580,N,12041.0906073,E,1,11,1.5,2.3075,M,8.191,M,99,0000*6E
$GPGGA,033302.00,3109.9953988,N,12041.0903624,E,1,13,1.4,2.8406,M,8.191,M,99,0000*6B
$GPGGA,033303.00,3110.0060881,N,12041.0901034,E,1,13,1.4,3.2015,M,8.191,M,99,0000*62
$GPGGA,033304.00,3110.0169661,N,12041.0898140,E,1,13,1.4,3.3583,M,8.191,M,99,0000*65
$GPGGA,033305.00,3110.0280642,N,12041.0895018,E,1,13,1.4,3.3428,M,8.191,M,99,0000*60
$GPGGA,033306.00,3110.0393849,N,12041.0891846,E,1,13,1.4,3.1072,M,8.191,M,99,0000*6B
$GPGGA,033307.00,3110.0509230,N,12041.0888766,E,1,13,1.4,2.6231,M,8.191,M,99,0000*6D
$GPGGA,033308.00,3110.0626627,N,12041.0886050,E,1,13,1.4,2.0006,M,8.191,M,99,0000*62
$GPGGA,033309.00,3110.0745745,N,12041.0883807,E,1,13,1.4,1.3198,M,8.190,M,99,0000*6A
$GPGGA,033310.00,3110.0866431,N,12041.0882814,E,1,12,1.5,0.7224,M,8.190,M,99,0000*6E
$GPGGA,033311.00,3110.0988787,N,12041.0883627,E,1,12,1.5,-0.0148,M,8.190,M,99,0000*4C
$GPGGA,033312.00,3110.1112843,N,12041.0886102,E,1,12,1.5,-0.5505,M,8.190,M,99,0000*4F
$GPGGA,033313.00,3110.1237962,N,12041.0890526,E,1,14,1.3,-0.9032,M,8.190,M,99,0000*40
$GPGGA,033314.00,3110.1363244,N,12041.0896691,E,1,12,1.6,-0.9118,M,8.190,M,99,0000*4B
$GPGGA,033315.00,3110.1488779,N,12041.0906008,E,1,10,2.1,-0.7968,M,8.190,M,99,0000*4A
$GPGGA,033316.00,3110.1614952,N,12041.0918229,E,1,09,2.7,-0.7136,M,8.190,M,99,0000*4A
$GPGGA,033317.00,3110.1741703,N,12041.0933278,E,1,10,2.1,-0.5617,M,8.190,M,99,0000*45
$GPGGA,033318.00,3110.1868085,N,12041.0949263,E,1,09,2.7,-0.4677,M,8.190,M,99,0000*49
$GPGGA,033319.00,3110.1992226,N,12041.0965510,E,1,09,2.7,-0.4562,M,8.190,M,99,0000*4D
$GPGGA,033320.00,3110.2111846,N,12041.0981623,E,1,09,2.7,-0.4169,M,8.190,M,99,0000*4D
$GPGGA,033321.00,3110.2226724,N,12041.0996691,E,1,09,2.7,-0.4548,M,8.190,M,99,0000*48
$GPGGA,033322.00,3110.2336788,N,12041.1010333,E,1,10,1.9,-0.5413,M,8.190,M,99,0000*4D
$GPGGA,033323.00,3110.2441530,N,12041.1022633,E,1,10,1.9,-0.4951,M,8.190,M,99,0000*44

OK!
Command accepted! Port: COM2.

OK!
Command accepted! Port: COM2.
$GPGGA,033324.00,3110.2540559,N,12041.1034091,E,1,10,1.9,-0.6493,M,8.190,M,99,0000*44
$GPGGA,033325.00,3110.2634771,N,12041.1045285,E,1,10,1.9,-0.8297,M,8.190,M,99,0000*40
$GPGGA,033326.00,3110.2723565,N,12041.1054554,E,1,10,1.9,-0.8092,M,8.190,M,99,0000*4F
$GPGGA,033327.00,3110.2806305,N,12041.1061878,E,1,09,1.9,-0.7651,M,8.190,M,99,0000*4D
$GPGGA,033328.00,3110.2879464,N,12041.1093437,E,1,07,2.9,-7.8083,M,8.190,M,99,0000*4C
$GPGGA,033329.00,3110.2948501,N,12041.1102980,E,1,07,2.9,-8.5119,M,8.190,M,99,0000*44
$GPGGA,033330.00,3110.3011912,N,12041.1103929,E,1,07,2.7,-6.7069,M,8.190,M,99,0000*40
$GPGGA,033331.00,3110.3060298,N,12041.1119274,E,1,09,2.7,-3.3851,M,8.190,M,99,0000*4A
$GPGGA,033332.00,3110.3102801,N,12041.1121293,E,1,09,2.7,-2.6646,M,8.190,M,99,0000*48
$GPGGA,033333.00,3110.3139821,N,12041.1104066,E,1,09,2.7,2.3981,M,8.190,M,99,0000*60
$GPGGA,033334.00,3110.3162822,N,12041.1103477,E,1,09,2.7,3.2501,M,8.190,M,99,0000*6D
$GPGGA,033335.00,3110.3177927,N,12041.1111141,E,1,09,2.7,3.5011,M,8.190,M,99,0000*6C
$GPGGA,033336.00,3110.3188039,N,12041.1125980,E,1,09,2.7,1.5149,M,8.190,M,99,0000*65
$GPGGA,033337.00,3110.3201324,N,12041.1137123,E,1,08,4.7,0.2483,M,8.190,M,99,0000*69
$GPGGA,033338.00,3110.3221192,N,12041.1143040,E,1,09,4.7,-0.1105,M,8.190,M,99,0000*48
$GPGGA,033339.00,3110.3246810,N,12041.1146270,E,1,09,2.7,-0.1810,M,8.190,M,99,0000*44
$GPGGA,033340.00,3110.3277750,N,12041.1148160,E,1,09,2.7,-0.1351,M,8.190,M,99,0000*41
$GPGGA,033341.00,3110.3314779,N,12041.1150167,E,1,08,4.7,-0.0262,M,8.190,M,99,0000*46
$GPGGA,033342.00,3110.3358375,N,12041.1152142,E,1,08,4.7,0.0238,M,8.190,M,99,0000*62
$GPGGA,033343.00,3110.3406749,N,12041.1152571,E,1,09,2.3,0.0783,M,8.190,M,99,0000*66
$GPGGA,033344.00,3110.3458728,N,12041.1151383,E,1,07,2.0,0.1208,M,8.190,M,99,0000*6F
$GPGGA,033345.00,3110.3514888,N,12041.1148943,E,1,09,2.0,0.1788,M,8.190,M,99,0000*6F
$GPGGA,033346.00,3110.3574453,N,12041.1143990,E,1,11,1.6,0.2188,M,8.190,M,99,0000*6C
$GPGGA,033347.00,3110.3637901,N,12041.1135575,E,1,11,1.6,0.1424,M,8.189,M,99,0000*6D
$GPGGA,033348.00,3110.3703815,N,12041.1122862,E,1,10,1.8,0.1433,M,8.189,M,99,0000*64
$GPGGA,033349.00,3110.3772631,N,12041.1106139,E,1,09,1.9,0.0980,M,8.189,M,99,0000*67
$GPGGA,033350.00,3110.3844660,N,12041.1086499,E,1,09,1.9,0.0754,M,8.189,M,99,0000*60
$GPGGA,033351.00,3110.3920314,N,12041.1063867,E,1,11,1.9,-0.0355,M,8.189,M,99,0000*43
$GPGGA,033352.00,3110.3998736,N,12041.1039465,E,1,09,1.7,-0.0835,M,8.189,M,99,0000*4C
$GPGGA,033353.00,3110.4079709,N,12041.1013461,E,1,09,1.7,-0.0955,M,8.188,M,99,0000*4A
$GPGGA,033354.00,3110.4162762,N,12041.0987142,E,1,09,1.7,-0.1135,M,8.188,M,99,0000*45
$GPGGA,033355.00,3110.4248285,N,12041.0960303,E,1,09,1.7,-0.0429,M,8.188,M,99,0000*44
$GPGGA,033356.00,3110.4337844,N,12041.0932966,E,1,09,1.7,-0.1693,M,8.188,M,99,0000*45
$GPGGA,033357.00,3110.4430481,N,12041.0904880,E,1,09,1.7,-0.0977,M,8.187,M,99,0000*46
$GPGGA,033358.00,3110.4523801,N,12041.0875745,E,1,08,1.7,-0.0086,M,8.187,M,99,0000*49
$GPGGA,033359.00,3110.4616000,N,12041.0844891,E,1,09,1.7,-0.0596,M,8.187,M,99,0000*45
$GPGGA,033400.00,3110.4707632,N,12041.0811632,E,1,09,1.7,0.0703,M,8.186,M,99,0000*6D
$GPGGA,033401.00,3110.4799963,N,12041.0776467,E,1,09,1.7,0.1593,M,8.186,M,99,0000*66
$GPGGA,033402.00,3110.4890879,N,12041.0741315,E,1,09,1.7,0.2060,M,8.186,M,99,0000*65
$GPGGA,033403.00,3110.4977501,N,12041.0708848,E,1,09,1.7,0.2167,M,8.186,M,99,0000*66
$GPGGA,033404.00,3110.5061571,N,12041.0676176,E,1,09,1.7,0.1528,M,8.185,M,99,0000*6A
$GPGGA,033405.00,3110.5146892,N,12041.0642435,E,1,09,1.7,0.1109,M,8.185,M,99,0000*6D
$GPGGA,033406.00,3110.5236113,N,12041.0610961,E,1,09,1.7,-0.0030,M,8.185,M,99,0000*46
$GPGGA,033407.00,3110.5329935,N,12041.0580595,E,1,09,1.7,-0.1000,M,8.184,M,99,0000*4A
$GPGGA,033408.00,3110.5427825,N,12041.0550718,E,1,09,1.7,-0.1957,M,8.184,M,99,0000*4D
$GPGGA,033409.00,3110.5527642,N,12041.0521151,E,1,09,1.7,-0.2292,M,8.184,M,99,0000*4E
$GPGGA,033410.00,3110.5627242,N,12041.0491891,E,1,09,1.7,-0.1535,M,8.184,M,99,0000*47
$GPGGA,033411.00,3110.5724166,N,12041.0463316,E,1,09,1.7,-0.0851,M,8.183,M,99,0000*41
$GPGGA,033412.00,3110.5817491,N,12041.0435120,E,1,09,1.7,-0.0309,M,8.183,M,99,0000*42
$GPGGA,033413.00,3110.5907072,N,12041.0407075,E,1,09,1.7,0.0235,M,8.183,M,99,0000*69
$GPGGA,033414.00,3110.5994096,N,12041.0378892,E,1,09,1.7,0.0840,M,8.183,M,99,0000*68
$GPGGA,033415.00,3110.6080610,N,12041.0349922,E,1,10,1.7,-0.0293,M,8.182,M,99,0000*46
$GPGGA,033416.00,3110.6169160,N,12041.0321234,E,1,10,1.7,-0.0391,M,8.182,M,99,0000*42
$GPGGA,033417.00,3110.6260948,N,12041.0293894,E,1,10,1.7,-0.1282,M,8.182,M,99,0000*41
$GPGGA,033418.00,3110.6355714,N,12041.0268640,E,1,10,1.7,-0.1758,M,8.182,M,99,0000*4F
$GPGGA,033419.00,3110.6453477,N,12041.0245507,E,1,10,1.7,-0.2209,M,8.181,M,99,0000*47
$GPGGA,033420.00,3110.6552657,N,12041.0226756,E,1,10,1.7,-0.2628,M,8.181,M,99,0000*49
$GPGGA,033421.00,3110.6652317,N,12041.0213696,E,1,10,1.7,-0.2497,M,8.181,M,99,0000*47
$GPGGA,033422.00,3110.6753806,N,12041.0207899,E,1,09,1.7,-0.2296,M,8.181,M,99,0000*44
$GPGGA,033423.00,3110.6854775,N,12041.0208581,E,1,10,1.6,-0.1791,M,8.181,M,99,0000*45
$GPGGA,033424.00,3110.6954749,N,12041.0212116,E,1,10,1.6,-0.1193,M,8.181,M,99,0000*49
$GPGGA,033425.00,3110.7053476,N,12041.0216564,E,1,10,1.6,-0.0428,M,8.181,M,99,0000*49
$GPGGA,033426.00,3110.7150439,N,12041.0220788,E,1,10,1.6,-0.0099,M,8.181,M,99,0000*48
$GPGGA,033427.00,3110.7243050,N,12041.0224483,E,1,09,1.7,0.1212,M,8.181,M,99,0000*6B
$GPGGA,033428.00,3110.7329565,N,12041.0227259,E,1,09,1.7,0.1361,M,8.180,M,99,0000*6C
$GPGGA,033429.00,3110.7409296,N,12041.0227817,E,1,10,1.6,0.1218,M,8.180,M,99,0000*65
$GPGGA,033430.00,3110.7481721,N,12041.0227658,E,1,10,1.6,0.0963,M,8.180,M,99,0000*67
$GPGGA,033431.00,3110.7548054,N,12041.0227203,E,1,09,1.7,0.0543,M,8.180,M,99,0000*6A
$GPGGA,033432.00,3110.7609688,N,12041.0226440,E,1,09,1.7,-0.0131,M,8.180,M,99,0000*44
$GPGGA,033433.00,3110.7669012,N,12041.0225401,E,1,09,1.7,-0.0700,M,8.180,M,99,0000*44
$GPGGA,033434.00,3110.7724992,N,12041.0223584,E,1,10,1.6,-0.0639,M,8.180,M,99,0000*42
$GPGGA,033435.00,3110.7777777,N,12041.0221343,E,1,09,1.7,-0.0739,M,8.180,M,99,0000*47
$GPGGA,033436.00,3110.7828232,N,12041.0218339,E,1,09,1.7,-0.1232,M,8.180,M,99,0000*4D
$GPGGA,033437.00,3110.7877786,N,12041.0215175,E,1,10,1.6,-0.1634,M,8.180,M,99,0000*40
$GPGGA,033438.00,3110.7928983,N,12041.0211905,E,1,10,1.6,-0.2074,M,8.180,M,99,0000*45
$GPGGA,033439.00,3110.7982917,N,12041.0208113,E,1,10,1.6,-0.2001,M,8.180,M,99,0000*4C
$GPGGA,033440.00,3110.8039274,N,12041.0203241,E,1,10,1.6,-0.1918,M,8.180,M,99,0000*47
$GPGGA,033441.00,3110.8098329,N,12041.0196362,E,1,10,1.6,-0.1577,M,8.180,M,99,0000*4E
$GPGGA,033442.00,3110.8160066,N,12041.0186038,E,1,10,1.6,-0.1535,M,8.179,M,99,0000*4E
$GPGGA,033443.00,3110.8224804,N,12041.0171711,E,1,10,1.6,-0.0835,M,8.179,M,99,0000*48
$GPGGA,033444.00,3110.8292602,N,12041.0153692,E,1,09,1.7,-0.0616,M,8.179,M,99,0000*46
$GPGGA,033445.00,3110.8361916,N,12041.0134420,E,1,09,1.6,-0.0661,M,8.179,M,99,0000*4B
$GPGGA,033446.00,3110.8430916,N,12041.0114193,E,1,10,1.6,-0.0075,M,8.179,M,99,0000*4F
$GPGGA,033447.00,3110.8499266,N,12041.0093583,E,1,10,1.6,-0.0131,M,8.179,M,99,0000*4B
$GPGGA,033448.00,3110.8566390,N,12041.0073156,E,1,10,1.6,0.0069,M,8.178,M,99,0000*6F
$GPGGA,033449.00,3110.8631727,N,12041.0053336,E,1,10,1.6,-0.0446,M,8.178,M,99,0000*45
$GPGGA,033450.00,3110.8696074,N,12041.0034354,E,1,10,1.6,-0.0774,M,8.178,M,99,0000*46
$GPGGA,033451.00,3110.8761429,N,12041.0016063,E,1,10,1.6,-0.1072,M,8.178,M,99,0000*45
$GPGGA,033452.00,3110.8829211,N,12040.9998195,E,1,10,1.6,-0.1289,M,8.178,M,99,0000*41
$GPGGA,033453.00,3110.8899702,N,12040.9980656,E,1,09,1.7,-0.1886,M,8.178,M,99,0000*41
$GPGGA,033454.00,3110.8972469,N,12040.9963345,E,1,09,1.9,-0.1954,M,8.177,M,99,0000*49
$GPGGA,033455.00,3110.9048000,N,12040.9945096,E,1,08,2.2,-0.0605,M,8.177,M,99,0000*48
$GPGGA,033456.00,3110.9123930,N,12040.9926848,E,1,08,1.7,0.0232,M,8.177,M,99,0000*68
$GPGGA,033457.00,3110.9210446,N,12040.9873247,E,1,07,1.7,-5.7184,M,8.177,M,99,0000*4C
$GPGGA,033458.00,3110.9278303,N,12040.9848380,E,1,08,1.6,-2.4878,M,8.176,M,99,0000*48
$GPGGA,033459.00,3110.9330329,N,12040.9843862,E,1,09,1.6,2.0737,M,8.176,M,99,0000*6C
$GPGGA,033500.00,3110.9375672,N,12040.9830890,E,1,09,1.6,2.8058,M,8.176,M,99,0000*64
$GPGGA,033501.00,3110.9428857,N,12040.9808403,E,1,08,1.7,-0.6430,M,8.176,M,99,0000*45
$GPGGA,033502.00,3110.9459584,N,12040.9808568,E,1,09,1.6,1.4799,M,8.176,M,99,0000*61
$GPGGA,033503.00,3110.9489432,N,12040.9804420,E,1,08,1.7,2.3035,M,8.176,M,99,0000*65
$GPGGA,033504.00,3110.9514769,N,12040.9787884,E,1,09,1.6,0.6729,M,8.176,M,99,0000*61
$GPGGA,033505.00,3110.9540049,N,12040.9775390,E,1,09,1.6,-1.2555,M,8.176,M,99,0000*46
$GPGGA,033506.00,3110.9557447,N,12040.9761012,E,1,09,1.6,-2.3182,M,8.176,M,99,0000*49
$GPGGA,033507.00,3110.9561356,N,12040.9758332,E,1,09,1.6,-2.5935,M,8.176,M,99,0000*43
$GPGGA,033508.00,3110.9560985,N,12040.9762172,E,1,09,1.6,-1.1837,M,8.176,M,99,0000*42
$GPGGA,033509.00,3110.9559378,N,12040.9765747,E,1,09,1.6,-0.3492,M,8.176,M,99,0000*46
$GPGGA,033510.00,3110.9558632,N,12040.9767386,E,1,09,1.6,0.1356,M,8.176,M,99,0000*6F
$GPGGA,033511.00,3110.9558557,N,12040.9767846,E,1,09,1.6,0.5253,M,8.176,M,99,0000*69
$GPGGA,033512.00,3110.9558574,N,12040.9767921,E,1,09,1.6,0.6053,M,8.176,M,99,0000*6A
$GPGGA,033513.00,3110.9558610,N,12040.9767962,E,1,10,1.6,0.6076,M,8.176,M,99,0000*62
$GPGGA,033514.00,3110.9558633,N,12040.9767946,E,1,10,1.6,0.6118,M,8.176,M,99,0000*6B
$GPGGA,033515.00,3110.9558650,N,12040.9767999,E,1,10,1.6,0.6267,M,8.176,M,99,0000*66
$GPGGA,033516.00,3110.9558650,N,12040.9768039,E,1,10,1.6,0.6327,M,8.176,M,99,0000*6C
$GPGGA,033517.00,3110.9558613,N,12040.9768077,E,1,10,1.6,0.6402,M,8.176,M,99,0000*60
$GPGGA,033518.00,3110.9558570,N,12040.9768055,E,1,10,1.6,0.6547,M,8.176,M,99,0000*69
$GPGGA,033519.00,3110.9558578,N,12040.9768128,E,1,10,1.6,0.6714,M,8.176,M,99,0000*6F
$GPGGA,033520.00,3110.9558580,N,12040.9768174,E,1,10,1.6,0.6767,M,8.176,M,99,0000*6F
$GPGGA,033521.00,3110.9558585,N,12040.9768079,E,1,10,1.6,0.6622,M,8.176,M,99,0000*67
$GPGGA,033522.00,3110.9558605,N,12040.9768067,E,1,10,1.6,0.6731,M,8.176,M,99,0000*63
$GPGGA,033523.00,3110.9558614,N,12040.9768067,E,1,10,1.6,0.6698,M,8.176,M,99,0000*60
$GPGGA,033524.00,3110.9558562,N,12040.9768108,E,1,12,1.5,0.6878,M,8.176,M,99,0000*6C
$GPGGA,033525.00,3110.9558554,N,12040.9768158,E,1,12,1.5,0.6911,M,8.176,M,99,0000*63
$GPGGA,033526.00,3110.9558565,N,12040.9768169,E,1,13,1.4,0.6935,M,8.176,M,99,0000*66
$GPGGA,033527.00,3110.9558562,N,12040.9768207,E,1,13,1.4,0.7055,M,8.176,M,99,0000*65
$GPGGA,033528.00,3110.9558599,N,12040.9768198,E,1,13,1.4,0.7011,M,8.176,M,99,0000*6B
$GPGGA,033529.00,3110.9558590,N,12040.9768176,E,1,13,1.4,0.7009,M,8.176,M,99,0000*6A
$GPGGA,033530.00,3110.9558617,N,12040.9768237,E,1,13,1.4,0.7109,M,8.176,M,99,0000*69
$GPGGA,033531.00,3110.9558578,N,12040.9768238,E,1,14,0.9,0.7240,M,8.176,M,99,0000*68
$GPGGA,033532.00,3110.9558585,N,12040.9768251,E,1,14,0.9,0.7305,M,8.176,M,99,0000*66
$GPGGA,033533.00,3110.9558579,N,12040.9768267,E,1,14,0.9,0.7409,M,8.176,M,99,0000*6A
$GPGGA,033534.00,3110.9558607,N,12040.9768277,E,1,14,0.9,0.7338,M,8.176,M,99,0000*63
$GPGGA,033535.00,3110.9558580,N,12040.9768287,E,1,14,0.9,0.7471,M,8.176,M,99,0000*6B
$GPGGA,033536.00,3110.9558590,N,12040.9768291,E,1,14,0.9,0.7512,M,8.176,M,99,0000*6A
$GPGGA,033537.00,3110.9558603,N,12040.9768334,E,1,14,0.9,0.7585,M,8.176,M,99,0000*62
$GPGGA,033538.00,3110.9558922,N,12040.9768219,E,1,14,0.9,0.7542,M,8.176,M,99,0000*64
$GPGGA,033539.00,3110.9560650,N,12040.9767623,E,1,14,0.9,0.7500,M,8.176,M,99,0000*60
$GPGGA,033540.00,3110.9564353,N,12040.9766554,E,1,14,0.9,0.7697,M,8.176,M,99,0000*63
$GPGGA,033541.00,3110.9571663,N,12040.9764113,E,1,14,0.9,0.7706,M,8.176,M,99,0000*6C
$GPGGA,033542.00,3110.9584050,N,12040.9760067,E,1,14,0.9,0.7650,M,8.176,M,99,0000*67
$GPGGA,033543.00,3110.9601971,N,12040.9754193,E,1,14,0.9,0.7611,M,8.175,M,99,0000*69
$GPGGA,033544.00,3110.9625034,N,12040.9746513,E,1,14,0.9,0.7786,M,8.175,M,99,0000*60
$GPGGA,033545.00,3110.9653363,N,12040.9736992,E,1,14,0.9,0.7633,M,8.175,M,99,0000*6C
$GPGGA,033546.00,3110.9687189,N,12040.9725988,E,1,14,0.9,0.7593,M,8.175,M,99,0000*60
$GPGGA,033547.00,3110.9728340,N,12040.9713443,E,1,14,0.9,0.7348,M,8.175,M,99,0000*6D
$GPGGA,033548.00,3110.9777330,N,12040.9699653,E,1,14,0.9,0.7386,M,8.175,M,99,0000*6D
$GPGGA,033549.00,3110.9834004,N,12040.9685005,E,1,14,0.9,0.6605,M,8.175,M,99,0000*67
$GPGGA,033550.00,3110.9897982,N,12040.9668630,E,1,14,0.9,0.4456,M,8.175,M,99,0000*64
$GPGGA,033551.00,3110.9967896,N,12040.9650133,E,1,13,1.0,0.3469,M,8.175,M,99,0000*64
$GPGGA,033552.00,3111.0041587,N,12040.9628707,E,1,13,1.0,0.3064,M,8.174,M,99,0000*69
$GPGGA,033553.00,3111.0116348,N,12040.9602768,E,1,10,1.6,0.2567,M,8.174,M,99,0000*6D
$GPGGA,033554.00,3111.0189608,N,12040.9574590,E,1,10,1.6,0.2417,M,8.174,M,99,0000*6C
$GPGGA,033555.00,3111.0259789,N,12040.9546748,E,1,10,1.6,0.2437,M,8.174,M,99,0000*6F
$GPGGA,033556.00,3111.0325703,N,12040.9519865,E,1,09,1.7,0.2863,M,8.173,M,99,0000*6D
$GPGGA,033557.00,3111.0386279,N,12040.9494422,E,1,10,1.6,0.3381,M,8.173,M,99,0000*69
$GPGGA,033558.00,3111.0441058,N,12040.9470814,E,1,10,1.6,0.3974,M,8.173,M,99,0000*68
$GPGGA,033559.00,3111.0491042,N,12040.9449054,E,1,09,1.7,0.4495,M,8.173,M,99,0000*65
$GPGGA,033600.00,3111.0538129,N,12040.9428384,E,1,10,1.6,0.5031,M,8.173,M,99,0000*6F
$GPGGA,033601.00,3111.0584344,N,12040.9407623,E,1,10,1.7,0.5860,M,8.172,M,99,0000*69
$GPGGA,033602.00,3111.0632372,N,12040.9385342,E,1,09,1.7,0.6656,M,8.172,M,99,0000*6E
$GPGGA,033603.00,3111.0683452,N,12040.9363116,E,1,10,1.6,0.7557,M,8.172,M,99,0000*61
$GPGGA,033604.00,3111.0737968,N,12040.9342452,E,1,10,1.6,0.8637,M,8.172,M,99,0000*60
$GPGGA,033605.00,3111.0794820,N,12040.9322481,E,1,10,1.6,0.9376,M,8.172,M,99,0000*6C
$GPGGA,033606.00,3111.0851760,N,12040.9301770,E,1,10,1.6,1.0772,M,8.172,M,99,0000*66
$GPGGA,033607.00,3111.0906121,N,12040.9279302,E,1,10,1.6,1.3890,M,8.171,M,99,0000*6B
$GPGGA,033608.00,3111.0957118,N,12040.9256037,E,1,09,1.7,1.4786,M,8.171,M,99,0000*64
$GPGGA,033609.00,3111.1003568,N,12040.9234179,E,1,09,1.7,1.6014,M,8.171,M,99,0000*6E
$GPGGA,033610.00,3111.1044833,N,12040.9214563,E,1,09,1.7,1.6494,M,8.171,M,99,0000*67
$GPGGA,033611.00,3111.1082148,N,12040.9197042,E,1,09,1.7,1.6633,M,8.171,M,99,0000*68
$GPGGA,033612.00,3111.1115221,N,12040.9181277,E,1,09,1.7,1.6910,M,8.171,M,99,0000*65
$GPGGA,033613.00,3111.1142732,N,12040.9168199,E,1,10,1.7,1.6121,M,8.170,M,99,0000*66
$GPGGA,033614.00,3111.1167443,N,12040.9156390,E,1,11,1.6,1.7420,M,8.170,M,99,0000*60
$GPGGA,033615.00,3111.1195740,N,12040.9143576,E,1,08,2.0,1.5323,M,8.170,M,99,0000*6D
$GPGGA,,,,,,0,,,,,,,,*66
$GPGGA,,,,,,0,,,,,,,,*66
$GPGGA,,,,,,0,,,,,,,,*66
$GPGGA,,,,,,0,,,,,,,,*66
$GPGGA,,,,,,0,,,,,,,,*66
$GPGGA,,,,,,0,,,,,,,,*66
$GPGGA,033622.00,3111.1433795,N,12040.9045892,E,1,08,1.8,4.5923,M,8.169,M,99,0000*64
$GPGGA,033623.00,3111.1498830,N,12040.9010967,E,1,08,1.8,4.5239,M,8.169,M,99,0000*6F
$GPGGA,033624.00,3111.1562339,N,12040.8973105,E,1,07,2.0,4.4303,M,8.169,M,99,0000*62
$GPGGA,033625.00,3111.1623831,N,12040.8932092,E,1,07,2.0,4.3219,M,8.169,M,99,0000*61
$GPGGA,033626.00,3111.1683081,N,12040.8888705,E,1,07,2.0,4.1646,M,8.168,M,99,0000*6F
$GPGGA,033627.00,3111.1868774,N,12040.8795470,E,1,08,2.6,2.5960,M,8.167,M,99,0000*65
$GPGGA,033628.00,3111.1921851,N,12040.8741205,E,1,07,2.7,2.4831,M,8.167,M,99,0000*69
$GPGGA,033629.00,3111.1971540,N,12040.8701839,E,1,07,2.7,3.8997,M,8.167,M,99,0000*61
$GPGGA,033630.00,3111.2011194,N,12040.8645026,E,1,09,1.7,5.0299,M,8.166,M,99,0000*68
$GPGGA,033631.00,3111.2061251,N,12040.8601207,E,1,09,1.7,2.3312,M,8.166,M,99,0000*63
$GPGGA,033632.00,3111.2095921,N,12040.8544860,E,1,08,2.8,5.2818,M,8.166,M,99,0000*64
$GPGGA,033633.00,3111.2127519,N,12040.8487850,E,1,08,2.7,7.4252,M,8.165,M,99,0000*6B
$GPGGA,033634.00,3111.2154757,N,12040.8431806,E,1,09,1.7,8.2764,M,8.165,M,99,0000*65
$GPGGA,033635.00,3111.2180264,N,12040.8379277,E,1,09,1.7,8.0231,M,8.165,M,99,0000*68
$GPGGA,033636.00,3111.2205086,N,12040.8329048,E,1,09,1.7,7.9845,M,8.164,M,99,0000*6E
$GPGGA,033637.00,3111.2228958,N,12040.8278928,E,1,08,1.8,8.2240,M,8.164,M,99,0000*65
$GPGGA,033638.00,3111.2251108,N,12040.8228557,E,1,08,2.2,8.4591,M,8.164,M,99,0000*6C
$GPGGA,033639.00,3111.2271968,N,12040.8176815,E,1,08,2.2,8.5022,M,8.163,M,99,0000*69
$GPGGA,033640.00,3111.2292994,N,12040.8122196,E,1,08,2.0,8.4827,M,8.163,M,99,0000*64
$GPGGA,033641.00,3111.2313519,N,12040.8063711,E,1,08,2.0,8.4893,M,8.163,M,99,0000*66
$GPGGA,033642.00,3111.2333278,N,12040.8001545,E,1,09,2.0,8.3602,M,8.162,M,99,0000*61
$GPGGA,033643.00,3111.2352341,N,12040.7936478,E,1,09,2.0,8.1385,M,8.162,M,99,0000*69
$GPGGA,033644.00,3111.2371249,N,12040.7868766,E,1,08,2.7,7.9532,M,8.161,M,99,0000*68
$GPGGA,033645.00,3111.2389909,N,12040.7799632,E,1,08,2.7,7.7610,M,8.161,M,99,0000*6D
$GPGGA,033646.00,3111.2408533,N,12040.7730296,E,1,08,2.7,7.6189,M,8.160,M,99,0000*6B
$GPGGA,033647.00,3111.2427939,N,12040.7660951,E,1,08,2.7,7.3721,M,8.160,M,99,0000*64
$GPGGA,033648.00,3111.2448606,N,12040.7590811,E,1,09,2.0,7.1515,M,8.159,M,99,0000*63
$GPGGA,033649.00,3111.2471151,N,12040.7519519,E,1,09,2.0,6.9473,M,8.159,M,99,0000*61
$GPGGA,033650.00,3111.2496470,N,12040.7446871,E,1,09,2.0,6.7717,M,8.159,M,99,0000*61
$GPGGA,033651.00,3111.2525273,N,12040.7373369,E,1,09,2.0,6.6632,M,8.158,M,99,0000*69
$GPGGA,033652.00,3111.2558454,N,12040.7300086,E,1,09,2.0,6.5150,M,8.158,M,99,0000*65
$GPGGA,033653.00,3111.2595715,N,12040.7227440,E,1,09,2.0,6.3377,M,8.157,M,99,0000*67
$GPGGA,033654.00,3111.2637086,N,12040.7156629,E,1,09,2.0,6.2032,M,8.157,M,99,0000*6D
$GPGGA,033655.00,3111.2682221,N,12040.7088950,E,1,08,2.6,6.0920,M,8.156,M,99,0000*60
$GPGGA,033656.00,3111.2730750,N,12040.7025428,E,1,08,2.6,6.0484,M,8.156,M,99,0000*6E
$GPGGA,033657.00,3111.2782114,N,12040.6966437,E,1,08,2.6,6.1258,M,8.155,M,99,0000*64
$GPGGA,033658.00,3111.2835858,N,12040.6912282,E,1,08,2.6,6.1940,M,8.155,M,99,0000*60
$GPGGA,033659.00,3111.2891728,N,12040.6863178,E,1,08,2.6,6.3036,M,8.155,M,99,0000*6C
$GPGGA,033700.00,3111.2949334,N,12040.6818931,E,1,07,2.7,6.3970,M,8.154,M,99,0000*61
$GPGGA,033701.00,3111.3008554,N,12040.6779762,E,1,07,2.7,6.4082,M,8.154,M,99,0000*6E
$GPGGA,033702.00,3111.3070255,N,12040.6745151,E,1,08,2.7,6.4923,M,8.154,M,99,0000*60
$GPGGA,033703.00,3111.3135069,N,12040.6714386,E,1,08,2.7,6.5217,M,8.153,M,99,0000*6A
$GPGGA,033704.00,3111.3203094,N,12040.6686435,E,1,08,2.1,6.5988,M,8.153,M,99,0000*67
$GPGGA,033705.00,3111.3274882,N,12040.6659769,E,1,08,2.1,6.5828,M,8.153,M,99,0000*6A
$GPGGA,033706.00,3111.3350229,N,12040.6632750,E,1,08,2.1,6.5759,M,8.153,M,99,0000*6B
$GPGGA,033707.00,3111.3427173,N,12040.6605698,E,1,08,2.1,6.6814,M,8.152,M,99,0000*64
$GPGGA,033708.00,3111.3503360,N,12040.6579429,E,1,08,2.1,6.7855,M,8.152,M,99,0000*68
$GPGGA,033709.00,3111.3579056,N,12040.6553373,E,1,08,2.1,6.7648,M,8.152,M,99,0000*60
$GPGGA,033710.00,3111.3655780,N,12040.6526605,E,1,08,2.1,6.7090,M,8.152,M,99,0000*6C
$GPGGA,033711.00,3111.3732475,N,12040.6499791,E,1,08,2.1,6.6064,M,8.152,M,99,0000*67
$GPGGA,033712.00,3111.3808661,N,12040.6473786,E,1,08,2.1,6.5807,M,8.151,M,99,0000*6A
$GPGGA,033713.00,3111.3884021,N,12040.6448844,E,1,09,2.0,6.5605,M,8.151,M,99,0000*68
$GPGGA,033714.00,3111.3957784,N,12040.6425282,E,1,09,2.0,6.5497,M,8.151,M,99,0000*6A
$GPGGA,033715.00,3111.4030290,N,12040.6402898,E,1,09,2.0,6.5405,M,8.151,M,99,0000*6B
$GPGGA,033716.00,3111.4103932,N,12040.6380723,E,1,09,2.0,6.5280,M,8.150,M,99,0000*62
$GPGGA,033717.00,3111.4180730,N,12040.6357077,E,1,09,1.8,6.4976,M,8.150,M,99,0000*60
$GPGGA,033718.00,3111.4261303,N,12040.6331327,E,1,10,1.8,6.4789,M,8.150,M,99,0000*67
$GPGGA,033719.00,3111.4345666,N,12040.6302815,E,1,09,2.0,6.4555,M,8.150,M,99,0000*6D
$GPGGA,033720.00,3111.4431972,N,12040.6273616,E,1,09,2.0,6.4292,M,8.150,M,99,0000*6F
$GPGGA,033721.00,3111.4518195,N,12040.6244466,E,1,09,2.0,6.3941,M,8.149,M,99,0000*6E
$GPGGA,033722.00,3111.4603870,N,12040.6215627,E,1,09,2.0,6.4066,M,8.149,M,99,0000*6E
$GPGGA,033723.00,3111.4689729,N,12040.6186502,E,1,09,2.0,6.4466,M,8.149,M,99,0000*67
